{
"type": "FeatureCollection",
"name": "GB train stations",
"crs": { "type": "name", "properties": { "name": "urn:ogc:def:crs:OGC:1.3:CRS84" } },
"features": [
{ "type": "Feature", "properties": { "Name": "Abbey Wood", "description": "\n        <div>Code: ABW<\/div>\n        <div>Owner: TfL Rail<\/div>\n        <div>\n          <a href=\"https:\/\/www.doogal.co.uk\/StationMap.php?station=Abbey%20Wood\">More information<\/a>\n        <\/div>\n      " }, "geometry": { "type": "Point", "coordinates": [ 0.121394, 51.491061 ] } },
{ "type": "Feature", "properties": { "Name": "Aber", "description": "\n        <div>Code: ABE<\/div>\n        <div>Owner: TfW Rail<\/div>\n        <div>\n          <a href=\"https:\/\/www.doogal.co.uk\/StationMap.php?station=Aber\">More information<\/a>\n        <\/div>\n      " }, "geometry": { "type": "Point", "coordinates": [ -3.229829, 51.574969 ] } },
{ "type": "Feature", "properties": { "Name": "Abercynon", "description": "\n        <div>Code: ACY<\/div>\n        <div>Owner: TfW Rail<\/div>\n        <div>\n          <a href=\"https:\/\/www.doogal.co.uk\/StationMap.php?station=Abercynon\">More information<\/a>\n        <\/div>\n      " }, "geometry": { "type": "Point", "coordinates": [ -3.326989, 51.644712 ] } },
{ "type": "Feature", "properties": { "Name": "Aberdare", "description": "\n        <div>Code: ABA<\/div>\n        <div>Owner: TfW Rail<\/div>\n        <div>\n          <a href=\"https:\/\/www.doogal.co.uk\/StationMap.php?station=Aberdare\">More information<\/a>\n        <\/div>\n      " }, "geometry": { "type": "Point", "coordinates": [ -3.443084, 51.715062 ] } },
{ "type": "Feature", "properties": { "Name": "Aberdeen", "description": "\n        <div>Code: ABD<\/div>\n        <div>Owner: ScotRail<\/div>\n        <div>\n          <a href=\"https:\/\/www.doogal.co.uk\/StationMap.php?station=Aberdeen\">More information<\/a>\n        <\/div>\n      " }, "geometry": { "type": "Point", "coordinates": [ -2.098685, 57.143706 ] } },
{ "type": "Feature", "properties": { "Name": "Aberdour", "description": "\n        <div>Code: AUR<\/div>\n        <div>Owner: ScotRail<\/div>\n        <div>\n          <a href=\"https:\/\/www.doogal.co.uk\/StationMap.php?station=Aberdour\">More information<\/a>\n        <\/div>\n      " }, "geometry": { "type": "Point", "coordinates": [ -3.300561, 56.054596 ] } },
{ "type": "Feature", "properties": { "Name": "Aberdovey", "description": "\n        <div>Code: AVY<\/div>\n        <div>Owner: TfW Rail<\/div>\n        <div>\n          <a href=\"https:\/\/www.doogal.co.uk\/StationMap.php?station=Aberdovey\">More information<\/a>\n        <\/div>\n      " }, "geometry": { "type": "Point", "coordinates": [ -4.057068, 52.543962 ] } },
{ "type": "Feature", "properties": { "Name": "Abererch", "description": "\n        <div>Code: ABH<\/div>\n        <div>Owner: TfW Rail<\/div>\n        <div>\n          <a href=\"https:\/\/www.doogal.co.uk\/StationMap.php?station=Abererch\">More information<\/a>\n        <\/div>\n      " }, "geometry": { "type": "Point", "coordinates": [ -4.374176, 52.898588 ] } },
{ "type": "Feature", "properties": { "Name": "Abergavenny", "description": "\n        <div>Code: AGV<\/div>\n        <div>Owner: TfW Rail<\/div>\n        <div>\n          <a href=\"https:\/\/www.doogal.co.uk\/StationMap.php?station=Abergavenny\">More information<\/a>\n        <\/div>\n      " }, "geometry": { "type": "Point", "coordinates": [ -3.009647, 51.816693 ] } },
{ "type": "Feature", "properties": { "Name": "Abergele and Pensarn", "description": "\n        <div>Code: AGL<\/div>\n        <div>Owner: TfW Rail<\/div>\n        <div>\n          <a href=\"https:\/\/www.doogal.co.uk\/StationMap.php?station=Abergele%20and%20Pensarn\">More information<\/a>\n        <\/div>\n      " }, "geometry": { "type": "Point", "coordinates": [ -3.582623, 53.294577 ] } },
{ "type": "Feature", "properties": { "Name": "Aberystwyth", "description": "\n        <div>Code: AYW<\/div>\n        <div>Owner: TfW Rail<\/div>\n        <div>\n          <a href=\"https:\/\/www.doogal.co.uk\/StationMap.php?station=Aberystwyth\">More information<\/a>\n        <\/div>\n      " }, "geometry": { "type": "Point", "coordinates": [ -4.081894, 52.41405 ] } },
{ "type": "Feature", "properties": { "Name": "Accrington", "description": "\n        <div>Code: ACR<\/div>\n        <div>Owner: Northern Trains<\/div>\n        <div>\n          <a href=\"https:\/\/www.doogal.co.uk\/StationMap.php?station=Accrington\">More information<\/a>\n        <\/div>\n      " }, "geometry": { "type": "Point", "coordinates": [ -2.369548, 53.752973 ] } },
{ "type": "Feature", "properties": { "Name": "Achanalt", "description": "\n        <div>Code: AAT<\/div>\n        <div>Owner: ScotRail<\/div>\n        <div>\n          <a href=\"https:\/\/www.doogal.co.uk\/StationMap.php?station=Achanalt\">More information<\/a>\n        <\/div>\n      " }, "geometry": { "type": "Point", "coordinates": [ -4.913853, 57.609602 ] } },
{ "type": "Feature", "properties": { "Name": "Achnasheen", "description": "\n        <div>Code: ACN<\/div>\n        <div>Owner: ScotRail<\/div>\n        <div>\n          <a href=\"https:\/\/www.doogal.co.uk\/StationMap.php?station=Achnasheen\">More information<\/a>\n        <\/div>\n      " }, "geometry": { "type": "Point", "coordinates": [ -5.072334, 57.579296 ] } },
{ "type": "Feature", "properties": { "Name": "Achnashellach", "description": "\n        <div>Code: ACH<\/div>\n        <div>Owner: ScotRail<\/div>\n        <div>\n          <a href=\"https:\/\/www.doogal.co.uk\/StationMap.php?station=Achnashellach\">More information<\/a>\n        <\/div>\n      " }, "geometry": { "type": "Point", "coordinates": [ -5.333057, 57.482081 ] } },
{ "type": "Feature", "properties": { "Name": "Acklington", "description": "\n        <div>Code: ACK<\/div>\n        <div>Owner: Northern Trains<\/div>\n        <div>\n          <a href=\"https:\/\/www.doogal.co.uk\/StationMap.php?station=Acklington\">More information<\/a>\n        <\/div>\n      " }, "geometry": { "type": "Point", "coordinates": [ -1.651835, 55.307099 ] } },
{ "type": "Feature", "properties": { "Name": "Acle", "description": "\n        <div>Code: ACL<\/div>\n        <div>Owner: Greater Anglia<\/div>\n        <div>\n          <a href=\"https:\/\/www.doogal.co.uk\/StationMap.php?station=Acle\">More information<\/a>\n        <\/div>\n      " }, "geometry": { "type": "Point", "coordinates": [ 1.543915, 52.634678 ] } },
{ "type": "Feature", "properties": { "Name": "Acocks Green", "description": "\n        <div>Code: ACG<\/div>\n        <div>Owner: West Midlands Trains (West Midlands Railway)<\/div>\n        <div>\n          <a href=\"https:\/\/www.doogal.co.uk\/StationMap.php?station=Acocks%20Green\">More information<\/a>\n        <\/div>\n      " }, "geometry": { "type": "Point", "coordinates": [ -1.818976, 52.449324 ] } },
{ "type": "Feature", "properties": { "Name": "Acton Bridge (Cheshire)", "description": "\n        <div>Code: ACB<\/div>\n        <div>Owner: West Midlands Trains (London Northwestern Railway)<\/div>\n        <div>\n          <a href=\"https:\/\/www.doogal.co.uk\/StationMap.php?station=Acton%20Bridge%20(Cheshire)\">More information<\/a>\n        <\/div>\n      " }, "geometry": { "type": "Point", "coordinates": [ -2.603127, 53.26651 ] } },
{ "type": "Feature", "properties": { "Name": "Acton Central", "description": "\n        <div>Code: ACC<\/div>\n        <div>Owner: London Overground<\/div>\n        <div>\n          <a href=\"https:\/\/www.doogal.co.uk\/StationMap.php?station=Acton%20Central\">More information<\/a>\n        <\/div>\n      " }, "geometry": { "type": "Point", "coordinates": [ -0.262971, 51.508715 ] } },
{ "type": "Feature", "properties": { "Name": "Acton Main Line", "description": "\n        <div>Code: AML<\/div>\n        <div>Owner: TfL Rail<\/div>\n        <div>\n          <a href=\"https:\/\/www.doogal.co.uk\/StationMap.php?station=Acton%20Main%20Line\">More information<\/a>\n        <\/div>\n      " }, "geometry": { "type": "Point", "coordinates": [ -0.266756, 51.517179 ] } },
{ "type": "Feature", "properties": { "Name": "Adderley Park", "description": "\n        <div>Code: ADD<\/div>\n        <div>Owner: West Midlands Trains (West Midlands Railway)<\/div>\n        <div>\n          <a href=\"https:\/\/www.doogal.co.uk\/StationMap.php?station=Adderley%20Park\">More information<\/a>\n        <\/div>\n      " }, "geometry": { "type": "Point", "coordinates": [ -1.855945, 52.483087 ] } },
{ "type": "Feature", "properties": { "Name": "Addiewell", "description": "\n        <div>Code: ADW<\/div>\n        <div>Owner: ScotRail<\/div>\n        <div>\n          <a href=\"https:\/\/www.doogal.co.uk\/StationMap.php?station=Addiewell\">More information<\/a>\n        <\/div>\n      " }, "geometry": { "type": "Point", "coordinates": [ -3.606527, 55.843413 ] } },
{ "type": "Feature", "properties": { "Name": "Addlestone", "description": "\n        <div>Code: ASN<\/div>\n        <div>Owner: South Western Railway<\/div>\n        <div>\n          <a href=\"https:\/\/www.doogal.co.uk\/StationMap.php?station=Addlestone\">More information<\/a>\n        <\/div>\n      " }, "geometry": { "type": "Point", "coordinates": [ -0.484457, 51.373045 ] } },
{ "type": "Feature", "properties": { "Name": "Adisham", "description": "\n        <div>Code: ADM<\/div>\n        <div>Owner: Southeastern<\/div>\n        <div>\n          <a href=\"https:\/\/www.doogal.co.uk\/StationMap.php?station=Adisham\">More information<\/a>\n        <\/div>\n      " }, "geometry": { "type": "Point", "coordinates": [ 1.199089, 51.241198 ] } },
{ "type": "Feature", "properties": { "Name": "Adlington (Cheshire)", "description": "\n        <div>Code: ADC<\/div>\n        <div>Owner: Northern Trains<\/div>\n        <div>\n          <a href=\"https:\/\/www.doogal.co.uk\/StationMap.php?station=Adlington%20(Cheshire)\">More information<\/a>\n        <\/div>\n      " }, "geometry": { "type": "Point", "coordinates": [ -2.133563, 53.319556 ] } },
{ "type": "Feature", "properties": { "Name": "Adlington (Lancashire)", "description": "\n        <div>Code: ADL<\/div>\n        <div>Owner: Northern Trains<\/div>\n        <div>\n          <a href=\"https:\/\/www.doogal.co.uk\/StationMap.php?station=Adlington%20(Lancashire)\">More information<\/a>\n        <\/div>\n      " }, "geometry": { "type": "Point", "coordinates": [ -2.603071, 53.613247 ] } },
{ "type": "Feature", "properties": { "Name": "Adwick", "description": "\n        <div>Code: AWK<\/div>\n        <div>Owner: Northern Trains<\/div>\n        <div>\n          <a href=\"https:\/\/www.doogal.co.uk\/StationMap.php?station=Adwick\">More information<\/a>\n        <\/div>\n      " }, "geometry": { "type": "Point", "coordinates": [ -1.180356, 53.572321 ] } },
{ "type": "Feature", "properties": { "Name": "Aigburth", "description": "\n        <div>Code: AIG<\/div>\n        <div>Owner: Merseyrail<\/div>\n        <div>\n          <a href=\"https:\/\/www.doogal.co.uk\/StationMap.php?station=Aigburth\">More information<\/a>\n        <\/div>\n      " }, "geometry": { "type": "Point", "coordinates": [ -2.927155, 53.364568 ] } },
{ "type": "Feature", "properties": { "Name": "Ainsdale", "description": "\n        <div>Code: ANS<\/div>\n        <div>Owner: Merseyrail<\/div>\n        <div>\n          <a href=\"https:\/\/www.doogal.co.uk\/StationMap.php?station=Ainsdale\">More information<\/a>\n        <\/div>\n      " }, "geometry": { "type": "Point", "coordinates": [ -3.042653, 53.602036 ] } },
{ "type": "Feature", "properties": { "Name": "Aintree", "description": "\n        <div>Code: AIN<\/div>\n        <div>Owner: Merseyrail<\/div>\n        <div>\n          <a href=\"https:\/\/www.doogal.co.uk\/StationMap.php?station=Aintree\">More information<\/a>\n        <\/div>\n      " }, "geometry": { "type": "Point", "coordinates": [ -2.956281, 53.473913 ] } },
{ "type": "Feature", "properties": { "Name": "Airbles", "description": "\n        <div>Code: AIR<\/div>\n        <div>Owner: ScotRail<\/div>\n        <div>\n          <a href=\"https:\/\/www.doogal.co.uk\/StationMap.php?station=Airbles\">More information<\/a>\n        <\/div>\n      " }, "geometry": { "type": "Point", "coordinates": [ -3.994193, 55.782838 ] } },
{ "type": "Feature", "properties": { "Name": "Airdrie", "description": "\n        <div>Code: ADR<\/div>\n        <div>Owner: ScotRail<\/div>\n        <div>\n          <a href=\"https:\/\/www.doogal.co.uk\/StationMap.php?station=Airdrie\">More information<\/a>\n        <\/div>\n      " }, "geometry": { "type": "Point", "coordinates": [ -3.982913, 55.863984 ] } },
{ "type": "Feature", "properties": { "Name": "Albany Park", "description": "\n        <div>Code: AYP<\/div>\n        <div>Owner: Southeastern<\/div>\n        <div>\n          <a href=\"https:\/\/www.doogal.co.uk\/StationMap.php?station=Albany%20Park\">More information<\/a>\n        <\/div>\n      " }, "geometry": { "type": "Point", "coordinates": [ 0.125737, 51.435451 ] } },
{ "type": "Feature", "properties": { "Name": "Albrighton", "description": "\n        <div>Code: ALB<\/div>\n        <div>Owner: West Midlands Trains (West Midlands Railway)<\/div>\n        <div>\n          <a href=\"https:\/\/www.doogal.co.uk\/StationMap.php?station=Albrighton\">More information<\/a>\n        <\/div>\n      " }, "geometry": { "type": "Point", "coordinates": [ -2.2689, 52.637944 ] } },
{ "type": "Feature", "properties": { "Name": "Alderley Edge", "description": "\n        <div>Code: ALD<\/div>\n        <div>Owner: Northern Trains<\/div>\n        <div>\n          <a href=\"https:\/\/www.doogal.co.uk\/StationMap.php?station=Alderley%20Edge\">More information<\/a>\n        <\/div>\n      " }, "geometry": { "type": "Point", "coordinates": [ -2.236799, 53.303782 ] } },
{ "type": "Feature", "properties": { "Name": "Aldermaston", "description": "\n        <div>Code: AMT<\/div>\n        <div>Owner: Great Western Railway<\/div>\n        <div>\n          <a href=\"https:\/\/www.doogal.co.uk\/StationMap.php?station=Aldermaston\">More information<\/a>\n        <\/div>\n      " }, "geometry": { "type": "Point", "coordinates": [ -1.137424, 51.401962 ] } },
{ "type": "Feature", "properties": { "Name": "Aldershot", "description": "\n        <div>Code: AHT<\/div>\n        <div>Owner: South Western Railway<\/div>\n        <div>\n          <a href=\"https:\/\/www.doogal.co.uk\/StationMap.php?station=Aldershot\">More information<\/a>\n        <\/div>\n      " }, "geometry": { "type": "Point", "coordinates": [ -0.75986, 51.246418 ] } },
{ "type": "Feature", "properties": { "Name": "Aldrington", "description": "\n        <div>Code: AGT<\/div>\n        <div>Owner: Govia Thameslink Railway (Southern)<\/div>\n        <div>\n          <a href=\"https:\/\/www.doogal.co.uk\/StationMap.php?station=Aldrington\">More information<\/a>\n        <\/div>\n      " }, "geometry": { "type": "Point", "coordinates": [ -0.183822, 50.836382 ] } },
{ "type": "Feature", "properties": { "Name": "Alexandra Palace", "description": "\n        <div>Code: AAP<\/div>\n        <div>Owner: Govia Thameslink Railway (Great Northern)<\/div>\n        <div>\n          <a href=\"https:\/\/www.doogal.co.uk\/StationMap.php?station=Alexandra%20Palace\">More information<\/a>\n        <\/div>\n      " }, "geometry": { "type": "Point", "coordinates": [ -0.120235, 51.597922 ] } },
{ "type": "Feature", "properties": { "Name": "Alexandra Parade", "description": "\n        <div>Code: AXP<\/div>\n        <div>Owner: ScotRail<\/div>\n        <div>\n          <a href=\"https:\/\/www.doogal.co.uk\/StationMap.php?station=Alexandra%20Parade\">More information<\/a>\n        <\/div>\n      " }, "geometry": { "type": "Point", "coordinates": [ -4.210649, 55.863176 ] } },
{ "type": "Feature", "properties": { "Name": "Alexandria", "description": "\n        <div>Code: ALX<\/div>\n        <div>Owner: ScotRail<\/div>\n        <div>\n          <a href=\"https:\/\/www.doogal.co.uk\/StationMap.php?station=Alexandria\">More information<\/a>\n        <\/div>\n      " }, "geometry": { "type": "Point", "coordinates": [ -4.577485, 55.985089 ] } },
{ "type": "Feature", "properties": { "Name": "Alfreton", "description": "\n        <div>Code: ALF<\/div>\n        <div>Owner: East Midlands Railway<\/div>\n        <div>\n          <a href=\"https:\/\/www.doogal.co.uk\/StationMap.php?station=Alfreton\">More information<\/a>\n        <\/div>\n      " }, "geometry": { "type": "Point", "coordinates": [ -1.369696, 53.100432 ] } },
{ "type": "Feature", "properties": { "Name": "Allens West", "description": "\n        <div>Code: ALW<\/div>\n        <div>Owner: Northern Trains<\/div>\n        <div>\n          <a href=\"https:\/\/www.doogal.co.uk\/StationMap.php?station=Allens%20West\">More information<\/a>\n        <\/div>\n      " }, "geometry": { "type": "Point", "coordinates": [ -1.361117, 54.524623 ] } },
{ "type": "Feature", "properties": { "Name": "Alloa", "description": "\n        <div>Code: ALO<\/div>\n        <div>Owner: ScotRail<\/div>\n        <div>\n          <a href=\"https:\/\/www.doogal.co.uk\/StationMap.php?station=Alloa\">More information<\/a>\n        <\/div>\n      " }, "geometry": { "type": "Point", "coordinates": [ -3.790056, 56.117794 ] } },
{ "type": "Feature", "properties": { "Name": "Alness", "description": "\n        <div>Code: ASS<\/div>\n        <div>Owner: ScotRail<\/div>\n        <div>\n          <a href=\"https:\/\/www.doogal.co.uk\/StationMap.php?station=Alness\">More information<\/a>\n        <\/div>\n      " }, "geometry": { "type": "Point", "coordinates": [ -4.249717, 57.694399 ] } },
{ "type": "Feature", "properties": { "Name": "Alnmouth", "description": "\n        <div>Code: ALM<\/div>\n        <div>Owner: Northern Trains<\/div>\n        <div>\n          <a href=\"https:\/\/www.doogal.co.uk\/StationMap.php?station=Alnmouth\">More information<\/a>\n        <\/div>\n      " }, "geometry": { "type": "Point", "coordinates": [ -1.636638, 55.392779 ] } },
{ "type": "Feature", "properties": { "Name": "Alresford (Essex)", "description": "\n        <div>Code: ALR<\/div>\n        <div>Owner: Greater Anglia<\/div>\n        <div>\n          <a href=\"https:\/\/www.doogal.co.uk\/StationMap.php?station=Alresford%20(Essex)\">More information<\/a>\n        <\/div>\n      " }, "geometry": { "type": "Point", "coordinates": [ 0.997436, 51.853997 ] } },
{ "type": "Feature", "properties": { "Name": "Alsager", "description": "\n        <div>Code: ASG<\/div>\n        <div>Owner: East Midlands Railway<\/div>\n        <div>\n          <a href=\"https:\/\/www.doogal.co.uk\/StationMap.php?station=Alsager\">More information<\/a>\n        <\/div>\n      " }, "geometry": { "type": "Point", "coordinates": [ -2.299058, 53.093005 ] } },
{ "type": "Feature", "properties": { "Name": "Althorne (Essex)", "description": "\n        <div>Code: ALN<\/div>\n        <div>Owner: Greater Anglia<\/div>\n        <div>\n          <a href=\"https:\/\/www.doogal.co.uk\/StationMap.php?station=Althorne%20(Essex)\">More information<\/a>\n        <\/div>\n      " }, "geometry": { "type": "Point", "coordinates": [ 0.752483, 51.647868 ] } },
{ "type": "Feature", "properties": { "Name": "Althorpe", "description": "\n        <div>Code: ALP<\/div>\n        <div>Owner: Northern Trains<\/div>\n        <div>\n          <a href=\"https:\/\/www.doogal.co.uk\/StationMap.php?station=Althorpe\">More information<\/a>\n        <\/div>\n      " }, "geometry": { "type": "Point", "coordinates": [ -0.733182, 53.5855 ] } },
{ "type": "Feature", "properties": { "Name": "Altnabreac", "description": "\n        <div>Code: ABC<\/div>\n        <div>Owner: ScotRail<\/div>\n        <div>\n          <a href=\"https:\/\/www.doogal.co.uk\/StationMap.php?station=Altnabreac\">More information<\/a>\n        <\/div>\n      " }, "geometry": { "type": "Point", "coordinates": [ -3.706281, 58.388153 ] } },
{ "type": "Feature", "properties": { "Name": "Alton", "description": "\n        <div>Code: AON<\/div>\n        <div>Owner: South Western Railway<\/div>\n        <div>\n          <a href=\"https:\/\/www.doogal.co.uk\/StationMap.php?station=Alton\">More information<\/a>\n        <\/div>\n      " }, "geometry": { "type": "Point", "coordinates": [ -0.966913, 51.151969 ] } },
{ "type": "Feature", "properties": { "Name": "Altrincham", "description": "\n        <div>Code: ALT<\/div>\n        <div>Owner: Northern Trains<\/div>\n        <div>\n          <a href=\"https:\/\/www.doogal.co.uk\/StationMap.php?station=Altrincham\">More information<\/a>\n        <\/div>\n      " }, "geometry": { "type": "Point", "coordinates": [ -2.346889, 53.387719 ] } },
{ "type": "Feature", "properties": { "Name": "Alvechurch", "description": "\n        <div>Code: ALV<\/div>\n        <div>Owner: West Midlands Trains (West Midlands Railway)<\/div>\n        <div>\n          <a href=\"https:\/\/www.doogal.co.uk\/StationMap.php?station=Alvechurch\">More information<\/a>\n        <\/div>\n      " }, "geometry": { "type": "Point", "coordinates": [ -1.967661, 52.346072 ] } },
{ "type": "Feature", "properties": { "Name": "Ambergate", "description": "\n        <div>Code: AMB<\/div>\n        <div>Owner: East Midlands Railway<\/div>\n        <div>\n          <a href=\"https:\/\/www.doogal.co.uk\/StationMap.php?station=Ambergate\">More information<\/a>\n        <\/div>\n      " }, "geometry": { "type": "Point", "coordinates": [ -1.480698, 53.060517 ] } },
{ "type": "Feature", "properties": { "Name": "Amberley", "description": "\n        <div>Code: AMY<\/div>\n        <div>Owner: Govia Thameslink Railway (Southern)<\/div>\n        <div>\n          <a href=\"https:\/\/www.doogal.co.uk\/StationMap.php?station=Amberley\">More information<\/a>\n        <\/div>\n      " }, "geometry": { "type": "Point", "coordinates": [ -0.541992, 50.896679 ] } },
{ "type": "Feature", "properties": { "Name": "Amersham", "description": "\n        <div>Code: AMR<\/div>\n        <div>Owner: London Underground<\/div>\n        <div>\n          <a href=\"https:\/\/www.doogal.co.uk\/StationMap.php?station=Amersham\">More information<\/a>\n        <\/div>\n      " }, "geometry": { "type": "Point", "coordinates": [ -0.607596, 51.674205 ] } },
{ "type": "Feature", "properties": { "Name": "Ammanford", "description": "\n        <div>Code: AMF<\/div>\n        <div>Owner: TfW Rail<\/div>\n        <div>\n          <a href=\"https:\/\/www.doogal.co.uk\/StationMap.php?station=Ammanford\">More information<\/a>\n        <\/div>\n      " }, "geometry": { "type": "Point", "coordinates": [ -3.996736, 51.79598 ] } },
{ "type": "Feature", "properties": { "Name": "Ancaster", "description": "\n        <div>Code: ANC<\/div>\n        <div>Owner: East Midlands Railway<\/div>\n        <div>\n          <a href=\"https:\/\/www.doogal.co.uk\/StationMap.php?station=Ancaster\">More information<\/a>\n        <\/div>\n      " }, "geometry": { "type": "Point", "coordinates": [ -0.535624, 52.987687 ] } },
{ "type": "Feature", "properties": { "Name": "Anderston", "description": "\n        <div>Code: AND<\/div>\n        <div>Owner: ScotRail<\/div>\n        <div>\n          <a href=\"https:\/\/www.doogal.co.uk\/StationMap.php?station=Anderston\">More information<\/a>\n        <\/div>\n      " }, "geometry": { "type": "Point", "coordinates": [ -4.27098, 55.859902 ] } },
{ "type": "Feature", "properties": { "Name": "Andover", "description": "\n        <div>Code: ADV<\/div>\n        <div>Owner: South Western Railway<\/div>\n        <div>\n          <a href=\"https:\/\/www.doogal.co.uk\/StationMap.php?station=Andover\">More information<\/a>\n        <\/div>\n      " }, "geometry": { "type": "Point", "coordinates": [ -1.492233, 51.211548 ] } },
{ "type": "Feature", "properties": { "Name": "Anerley", "description": "\n        <div>Code: ANZ<\/div>\n        <div>Owner: London Overground<\/div>\n        <div>\n          <a href=\"https:\/\/www.doogal.co.uk\/StationMap.php?station=Anerley\">More information<\/a>\n        <\/div>\n      " }, "geometry": { "type": "Point", "coordinates": [ -0.065886, 51.412151 ] } },
{ "type": "Feature", "properties": { "Name": "Angel Road", "description": "\n        <div>Code: AGR<\/div>\n        <div>Owner: Greater Anglia<\/div>\n        <div>\n          <a href=\"https:\/\/www.doogal.co.uk\/StationMap.php?station=Angel%20Road\">More information<\/a>\n        <\/div>\n      " }, "geometry": { "type": "Point", "coordinates": [ -0.048791, 51.612403 ] } },
{ "type": "Feature", "properties": { "Name": "Angmering", "description": "\n        <div>Code: ANG<\/div>\n        <div>Owner: Govia Thameslink Railway (Southern)<\/div>\n        <div>\n          <a href=\"https:\/\/www.doogal.co.uk\/StationMap.php?station=Angmering\">More information<\/a>\n        <\/div>\n      " }, "geometry": { "type": "Point", "coordinates": [ -0.489394, 50.816574 ] } },
{ "type": "Feature", "properties": { "Name": "Annan", "description": "\n        <div>Code: ANN<\/div>\n        <div>Owner: ScotRail<\/div>\n        <div>\n          <a href=\"https:\/\/www.doogal.co.uk\/StationMap.php?station=Annan\">More information<\/a>\n        <\/div>\n      " }, "geometry": { "type": "Point", "coordinates": [ -3.262581, 54.983839 ] } },
{ "type": "Feature", "properties": { "Name": "Anniesland", "description": "\n        <div>Code: ANL<\/div>\n        <div>Owner: ScotRail<\/div>\n        <div>\n          <a href=\"https:\/\/www.doogal.co.uk\/StationMap.php?station=Anniesland\">More information<\/a>\n        <\/div>\n      " }, "geometry": { "type": "Point", "coordinates": [ -4.321958, 55.889356 ] } },
{ "type": "Feature", "properties": { "Name": "Ansdell and Fairhaven", "description": "\n        <div>Code: AFV<\/div>\n        <div>Owner: Northern Trains<\/div>\n        <div>\n          <a href=\"https:\/\/www.doogal.co.uk\/StationMap.php?station=Ansdell%20and%20Fairhaven\">More information<\/a>\n        <\/div>\n      " }, "geometry": { "type": "Point", "coordinates": [ -2.993034, 53.741465 ] } },
{ "type": "Feature", "properties": { "Name": "Apperley Bridge", "description": "\n        <div>Code: APY<\/div>\n        <div>Owner: Northern Trains<\/div>\n        <div>\n          <a href=\"https:\/\/www.doogal.co.uk\/StationMap.php?station=Apperley%20Bridge\">More information<\/a>\n        <\/div>\n      " }, "geometry": { "type": "Point", "coordinates": [ -1.705829, 53.84175 ] } },
{ "type": "Feature", "properties": { "Name": "Appleby", "description": "\n        <div>Code: APP<\/div>\n        <div>Owner: Northern Trains<\/div>\n        <div>\n          <a href=\"https:\/\/www.doogal.co.uk\/StationMap.php?station=Appleby\">More information<\/a>\n        <\/div>\n      " }, "geometry": { "type": "Point", "coordinates": [ -2.486693, 54.580349 ] } },
{ "type": "Feature", "properties": { "Name": "Appledore (Kent)", "description": "\n        <div>Code: APD<\/div>\n        <div>Owner: Govia Thameslink Railway (Southern)<\/div>\n        <div>\n          <a href=\"https:\/\/www.doogal.co.uk\/StationMap.php?station=Appledore%20(Kent)\">More information<\/a>\n        <\/div>\n      " }, "geometry": { "type": "Point", "coordinates": [ 0.816342, 51.033234 ] } },
{ "type": "Feature", "properties": { "Name": "Appleford", "description": "\n        <div>Code: APF<\/div>\n        <div>Owner: Great Western Railway<\/div>\n        <div>\n          <a href=\"https:\/\/www.doogal.co.uk\/StationMap.php?station=Appleford\">More information<\/a>\n        <\/div>\n      " }, "geometry": { "type": "Point", "coordinates": [ -1.242142, 51.639642 ] } },
{ "type": "Feature", "properties": { "Name": "Appley Bridge", "description": "\n        <div>Code: APB<\/div>\n        <div>Owner: Northern Trains<\/div>\n        <div>\n          <a href=\"https:\/\/www.doogal.co.uk\/StationMap.php?station=Appley%20Bridge\">More information<\/a>\n        <\/div>\n      " }, "geometry": { "type": "Point", "coordinates": [ -2.719253, 53.578673 ] } },
{ "type": "Feature", "properties": { "Name": "Apsley", "description": "\n        <div>Code: APS<\/div>\n        <div>Owner: West Midlands Trains (London Northwestern Railway)<\/div>\n        <div>\n          <a href=\"https:\/\/www.doogal.co.uk\/StationMap.php?station=Apsley\">More information<\/a>\n        <\/div>\n      " }, "geometry": { "type": "Point", "coordinates": [ -0.462935, 51.732521 ] } },
{ "type": "Feature", "properties": { "Name": "Arbroath", "description": "\n        <div>Code: ARB<\/div>\n        <div>Owner: ScotRail<\/div>\n        <div>\n          <a href=\"https:\/\/www.doogal.co.uk\/StationMap.php?station=Arbroath\">More information<\/a>\n        <\/div>\n      " }, "geometry": { "type": "Point", "coordinates": [ -2.588932, 56.559576 ] } },
{ "type": "Feature", "properties": { "Name": "Ardgay", "description": "\n        <div>Code: ARD<\/div>\n        <div>Owner: ScotRail<\/div>\n        <div>\n          <a href=\"https:\/\/www.doogal.co.uk\/StationMap.php?station=Ardgay\">More information<\/a>\n        <\/div>\n      " }, "geometry": { "type": "Point", "coordinates": [ -4.36209, 57.881458 ] } },
{ "type": "Feature", "properties": { "Name": "Ardlui", "description": "\n        <div>Code: AUI<\/div>\n        <div>Owner: ScotRail<\/div>\n        <div>\n          <a href=\"https:\/\/www.doogal.co.uk\/StationMap.php?station=Ardlui\">More information<\/a>\n        <\/div>\n      " }, "geometry": { "type": "Point", "coordinates": [ -4.721659, 56.301972 ] } },
{ "type": "Feature", "properties": { "Name": "Ardrossan Harbour", "description": "\n        <div>Code: ADS<\/div>\n        <div>Owner: ScotRail<\/div>\n        <div>\n          <a href=\"https:\/\/www.doogal.co.uk\/StationMap.php?station=Ardrossan%20Harbour\">More information<\/a>\n        <\/div>\n      " }, "geometry": { "type": "Point", "coordinates": [ -4.821112, 55.639878 ] } },
{ "type": "Feature", "properties": { "Name": "Ardrossan South Beach", "description": "\n        <div>Code: ASB<\/div>\n        <div>Owner: ScotRail<\/div>\n        <div>\n          <a href=\"https:\/\/www.doogal.co.uk\/StationMap.php?station=Ardrossan%20South%20Beach\">More information<\/a>\n        <\/div>\n      " }, "geometry": { "type": "Point", "coordinates": [ -4.801213, 55.641422 ] } },
{ "type": "Feature", "properties": { "Name": "Ardrossan Town", "description": "\n        <div>Code: ADN<\/div>\n        <div>Owner: ScotRail<\/div>\n        <div>\n          <a href=\"https:\/\/www.doogal.co.uk\/StationMap.php?station=Ardrossan%20Town\">More information<\/a>\n        <\/div>\n      " }, "geometry": { "type": "Point", "coordinates": [ -4.812676, 55.639712 ] } },
{ "type": "Feature", "properties": { "Name": "Ardwick", "description": "\n        <div>Code: ADK<\/div>\n        <div>Owner: Northern Trains<\/div>\n        <div>\n          <a href=\"https:\/\/www.doogal.co.uk\/StationMap.php?station=Ardwick\">More information<\/a>\n        <\/div>\n      " }, "geometry": { "type": "Point", "coordinates": [ -2.213884, 53.471346 ] } },
{ "type": "Feature", "properties": { "Name": "Argyle Street", "description": "\n        <div>Code: AGS<\/div>\n        <div>Owner: ScotRail<\/div>\n        <div>\n          <a href=\"https:\/\/www.doogal.co.uk\/StationMap.php?station=Argyle%20Street\">More information<\/a>\n        <\/div>\n      " }, "geometry": { "type": "Point", "coordinates": [ -4.250695, 55.857309 ] } },
{ "type": "Feature", "properties": { "Name": "Arisaig", "description": "\n        <div>Code: ARG<\/div>\n        <div>Owner: ScotRail<\/div>\n        <div>\n          <a href=\"https:\/\/www.doogal.co.uk\/StationMap.php?station=Arisaig\">More information<\/a>\n        <\/div>\n      " }, "geometry": { "type": "Point", "coordinates": [ -5.839079, 56.912554 ] } },
{ "type": "Feature", "properties": { "Name": "Arlesey", "description": "\n        <div>Code: ARL<\/div>\n        <div>Owner: Govia Thameslink Railway (Great Northern)<\/div>\n        <div>\n          <a href=\"https:\/\/www.doogal.co.uk\/StationMap.php?station=Arlesey\">More information<\/a>\n        <\/div>\n      " }, "geometry": { "type": "Point", "coordinates": [ -0.26632, 52.02603 ] } },
{ "type": "Feature", "properties": { "Name": "Armadale (West Lothian)", "description": "\n        <div>Code: ARM<\/div>\n        <div>Owner: ScotRail<\/div>\n        <div>\n          <a href=\"https:\/\/www.doogal.co.uk\/StationMap.php?station=Armadale%20(West%20Lothian)\">More information<\/a>\n        <\/div>\n      " }, "geometry": { "type": "Point", "coordinates": [ -3.695413, 55.885714 ] } },
{ "type": "Feature", "properties": { "Name": "Armathwaite", "description": "\n        <div>Code: AWT<\/div>\n        <div>Owner: Northern Trains<\/div>\n        <div>\n          <a href=\"https:\/\/www.doogal.co.uk\/StationMap.php?station=Armathwaite\">More information<\/a>\n        <\/div>\n      " }, "geometry": { "type": "Point", "coordinates": [ -2.772071, 54.809468 ] } },
{ "type": "Feature", "properties": { "Name": "Arnside", "description": "\n        <div>Code: ARN<\/div>\n        <div>Owner: Northern Trains<\/div>\n        <div>\n          <a href=\"https:\/\/www.doogal.co.uk\/StationMap.php?station=Arnside\">More information<\/a>\n        <\/div>\n      " }, "geometry": { "type": "Point", "coordinates": [ -2.828242, 54.202732 ] } },
{ "type": "Feature", "properties": { "Name": "Arram", "description": "\n        <div>Code: ARR<\/div>\n        <div>Owner: Northern Trains<\/div>\n        <div>\n          <a href=\"https:\/\/www.doogal.co.uk\/StationMap.php?station=Arram\">More information<\/a>\n        <\/div>\n      " }, "geometry": { "type": "Point", "coordinates": [ -0.42657, 53.884343 ] } },
{ "type": "Feature", "properties": { "Name": "Arrochar and Tarbet", "description": "\n        <div>Code: ART<\/div>\n        <div>Owner: ScotRail<\/div>\n        <div>\n          <a href=\"https:\/\/www.doogal.co.uk\/StationMap.php?station=Arrochar%20and%20Tarbet\">More information<\/a>\n        <\/div>\n      " }, "geometry": { "type": "Point", "coordinates": [ -4.722771, 56.203977 ] } },
{ "type": "Feature", "properties": { "Name": "Arundel", "description": "\n        <div>Code: ARU<\/div>\n        <div>Owner: Govia Thameslink Railway (Southern)<\/div>\n        <div>\n          <a href=\"https:\/\/www.doogal.co.uk\/StationMap.php?station=Arundel\">More information<\/a>\n        <\/div>\n      " }, "geometry": { "type": "Point", "coordinates": [ -0.546174, 50.848214 ] } },
{ "type": "Feature", "properties": { "Name": "Ascot (Berks)", "description": "\n        <div>Code: ACT<\/div>\n        <div>Owner: South Western Railway<\/div>\n        <div>\n          <a href=\"https:\/\/www.doogal.co.uk\/StationMap.php?station=Ascot%20(Berks)\">More information<\/a>\n        <\/div>\n      " }, "geometry": { "type": "Point", "coordinates": [ -0.675833, 51.406243 ] } },
{ "type": "Feature", "properties": { "Name": "Ascott-Under-Wychwood", "description": "\n        <div>Code: AUW<\/div>\n        <div>Owner: Great Western Railway<\/div>\n        <div>\n          <a href=\"https:\/\/www.doogal.co.uk\/StationMap.php?station=Ascott-Under-Wychwood\">More information<\/a>\n        <\/div>\n      " }, "geometry": { "type": "Point", "coordinates": [ -1.564053, 51.867342 ] } },
{ "type": "Feature", "properties": { "Name": "Ash", "description": "\n        <div>Code: ASH<\/div>\n        <div>Owner: South Western Railway<\/div>\n        <div>\n          <a href=\"https:\/\/www.doogal.co.uk\/StationMap.php?station=Ash\">More information<\/a>\n        <\/div>\n      " }, "geometry": { "type": "Point", "coordinates": [ -0.712805, 51.249597 ] } },
{ "type": "Feature", "properties": { "Name": "Ash Vale", "description": "\n        <div>Code: AHV<\/div>\n        <div>Owner: South Western Railway<\/div>\n        <div>\n          <a href=\"https:\/\/www.doogal.co.uk\/StationMap.php?station=Ash%20Vale\">More information<\/a>\n        <\/div>\n      " }, "geometry": { "type": "Point", "coordinates": [ -0.721649, 51.272246 ] } },
{ "type": "Feature", "properties": { "Name": "Ashburys", "description": "\n        <div>Code: ABY<\/div>\n        <div>Owner: Northern Trains<\/div>\n        <div>\n          <a href=\"https:\/\/www.doogal.co.uk\/StationMap.php?station=Ashburys\">More information<\/a>\n        <\/div>\n      " }, "geometry": { "type": "Point", "coordinates": [ -2.194437, 53.47164 ] } },
{ "type": "Feature", "properties": { "Name": "Ashchurch for Tewkesbury", "description": "\n        <div>Code: ASC<\/div>\n        <div>Owner: Great Western Railway<\/div>\n        <div>\n          <a href=\"https:\/\/www.doogal.co.uk\/StationMap.php?station=Ashchurch%20for%20Tewkesbury\">More information<\/a>\n        <\/div>\n      " }, "geometry": { "type": "Point", "coordinates": [ -2.10876, 51.998906 ] } },
{ "type": "Feature", "properties": { "Name": "Ashfield", "description": "\n        <div>Code: ASF<\/div>\n        <div>Owner: ScotRail<\/div>\n        <div>\n          <a href=\"https:\/\/www.doogal.co.uk\/StationMap.php?station=Ashfield\">More information<\/a>\n        <\/div>\n      " }, "geometry": { "type": "Point", "coordinates": [ -4.249215, 55.888927 ] } },
{ "type": "Feature", "properties": { "Name": "Ashford (Surrey)", "description": "\n        <div>Code: AFS<\/div>\n        <div>Owner: South Western Railway<\/div>\n        <div>\n          <a href=\"https:\/\/www.doogal.co.uk\/StationMap.php?station=Ashford%20(Surrey)\">More information<\/a>\n        <\/div>\n      " }, "geometry": { "type": "Point", "coordinates": [ -0.468071, 51.436506 ] } },
{ "type": "Feature", "properties": { "Name": "Ashford International", "description": "\n        <div>Code: AFK<\/div>\n        <div>Owner: Southeastern<\/div>\n        <div>\n          <a href=\"https:\/\/www.doogal.co.uk\/StationMap.php?station=Ashford%20International\">More information<\/a>\n        <\/div>\n      " }, "geometry": { "type": "Point", "coordinates": [ 0.876197, 51.143703 ] } },
{ "type": "Feature", "properties": { "Name": "Ashley", "description": "\n        <div>Code: ASY<\/div>\n        <div>Owner: Northern Trains<\/div>\n        <div>\n          <a href=\"https:\/\/www.doogal.co.uk\/StationMap.php?station=Ashley\">More information<\/a>\n        <\/div>\n      " }, "geometry": { "type": "Point", "coordinates": [ -2.341461, 53.355726 ] } },
{ "type": "Feature", "properties": { "Name": "Ashtead", "description": "\n        <div>Code: AHD<\/div>\n        <div>Owner: Govia Thameslink Railway (Southern)<\/div>\n        <div>\n          <a href=\"https:\/\/www.doogal.co.uk\/StationMap.php?station=Ashtead\">More information<\/a>\n        <\/div>\n      " }, "geometry": { "type": "Point", "coordinates": [ -0.307572, 51.317873 ] } },
{ "type": "Feature", "properties": { "Name": "Ashton-Under-Lyne", "description": "\n        <div>Code: AHN<\/div>\n        <div>Owner: Northern Trains<\/div>\n        <div>\n          <a href=\"https:\/\/www.doogal.co.uk\/StationMap.php?station=Ashton-Under-Lyne\">More information<\/a>\n        <\/div>\n      " }, "geometry": { "type": "Point", "coordinates": [ -2.094313, 53.491275 ] } },
{ "type": "Feature", "properties": { "Name": "Ashurst (Kent)", "description": "\n        <div>Code: AHS<\/div>\n        <div>Owner: Govia Thameslink Railway (Southern)<\/div>\n        <div>\n          <a href=\"https:\/\/www.doogal.co.uk\/StationMap.php?station=Ashurst%20(Kent)\">More information<\/a>\n        <\/div>\n      " }, "geometry": { "type": "Point", "coordinates": [ 0.152652, 51.128661 ] } },
{ "type": "Feature", "properties": { "Name": "Ashurst New Forest", "description": "\n        <div>Code: ANF<\/div>\n        <div>Owner: South Western Railway<\/div>\n        <div>\n          <a href=\"https:\/\/www.doogal.co.uk\/StationMap.php?station=Ashurst%20New%20Forest\">More information<\/a>\n        <\/div>\n      " }, "geometry": { "type": "Point", "coordinates": [ -1.526631, 50.889851 ] } },
{ "type": "Feature", "properties": { "Name": "Ashwell and Morden", "description": "\n        <div>Code: AWM<\/div>\n        <div>Owner: Govia Thameslink Railway (Great Northern)<\/div>\n        <div>\n          <a href=\"https:\/\/www.doogal.co.uk\/StationMap.php?station=Ashwell%20and%20Morden\">More information<\/a>\n        <\/div>\n      " }, "geometry": { "type": "Point", "coordinates": [ -0.109789, 52.030771 ] } },
{ "type": "Feature", "properties": { "Name": "Askam", "description": "\n        <div>Code: ASK<\/div>\n        <div>Owner: Northern Trains<\/div>\n        <div>\n          <a href=\"https:\/\/www.doogal.co.uk\/StationMap.php?station=Askam\">More information<\/a>\n        <\/div>\n      " }, "geometry": { "type": "Point", "coordinates": [ -3.204512, 54.188933 ] } },
{ "type": "Feature", "properties": { "Name": "Aslockton", "description": "\n        <div>Code: ALK<\/div>\n        <div>Owner: East Midlands Railway<\/div>\n        <div>\n          <a href=\"https:\/\/www.doogal.co.uk\/StationMap.php?station=Aslockton\">More information<\/a>\n        <\/div>\n      " }, "geometry": { "type": "Point", "coordinates": [ -0.898098, 52.95155 ] } },
{ "type": "Feature", "properties": { "Name": "Aspatria", "description": "\n        <div>Code: ASP<\/div>\n        <div>Owner: Northern Trains<\/div>\n        <div>\n          <a href=\"https:\/\/www.doogal.co.uk\/StationMap.php?station=Aspatria\">More information<\/a>\n        <\/div>\n      " }, "geometry": { "type": "Point", "coordinates": [ -3.331874, 54.75896 ] } },
{ "type": "Feature", "properties": { "Name": "Aspley Guise", "description": "\n        <div>Code: APG<\/div>\n        <div>Owner: West Midlands Trains (London Northwestern Railway)<\/div>\n        <div>\n          <a href=\"https:\/\/www.doogal.co.uk\/StationMap.php?station=Aspley%20Guise\">More information<\/a>\n        <\/div>\n      " }, "geometry": { "type": "Point", "coordinates": [ -0.632335, 52.021236 ] } },
{ "type": "Feature", "properties": { "Name": "Aston", "description": "\n        <div>Code: AST<\/div>\n        <div>Owner: West Midlands Trains (West Midlands Railway)<\/div>\n        <div>\n          <a href=\"https:\/\/www.doogal.co.uk\/StationMap.php?station=Aston\">More information<\/a>\n        <\/div>\n      " }, "geometry": { "type": "Point", "coordinates": [ -1.871934, 52.504232 ] } },
{ "type": "Feature", "properties": { "Name": "Atherstone", "description": "\n        <div>Code: ATH<\/div>\n        <div>Owner: West Midlands Trains (London Northwestern Railway)<\/div>\n        <div>\n          <a href=\"https:\/\/www.doogal.co.uk\/StationMap.php?station=Atherstone\">More information<\/a>\n        <\/div>\n      " }, "geometry": { "type": "Point", "coordinates": [ -1.552811, 52.578972 ] } },
{ "type": "Feature", "properties": { "Name": "Atherton", "description": "\n        <div>Code: ATN<\/div>\n        <div>Owner: Northern Trains<\/div>\n        <div>\n          <a href=\"https:\/\/www.doogal.co.uk\/StationMap.php?station=Atherton\">More information<\/a>\n        <\/div>\n      " }, "geometry": { "type": "Point", "coordinates": [ -2.478972, 53.529146 ] } },
{ "type": "Feature", "properties": { "Name": "Attadale", "description": "\n        <div>Code: ATT<\/div>\n        <div>Owner: ScotRail<\/div>\n        <div>\n          <a href=\"https:\/\/www.doogal.co.uk\/StationMap.php?station=Attadale\">More information<\/a>\n        <\/div>\n      " }, "geometry": { "type": "Point", "coordinates": [ -5.455579, 57.395043 ] } },
{ "type": "Feature", "properties": { "Name": "Attenborough", "description": "\n        <div>Code: ATB<\/div>\n        <div>Owner: East Midlands Railway<\/div>\n        <div>\n          <a href=\"https:\/\/www.doogal.co.uk\/StationMap.php?station=Attenborough\">More information<\/a>\n        <\/div>\n      " }, "geometry": { "type": "Point", "coordinates": [ -1.231416, 52.906213 ] } },
{ "type": "Feature", "properties": { "Name": "Attleborough", "description": "\n        <div>Code: ATL<\/div>\n        <div>Owner: Greater Anglia<\/div>\n        <div>\n          <a href=\"https:\/\/www.doogal.co.uk\/StationMap.php?station=Attleborough\">More information<\/a>\n        <\/div>\n      " }, "geometry": { "type": "Point", "coordinates": [ 1.022348, 52.514545 ] } },
{ "type": "Feature", "properties": { "Name": "Auchinleck", "description": "\n        <div>Code: AUK<\/div>\n        <div>Owner: ScotRail<\/div>\n        <div>\n          <a href=\"https:\/\/www.doogal.co.uk\/StationMap.php?station=Auchinleck\">More information<\/a>\n        <\/div>\n      " }, "geometry": { "type": "Point", "coordinates": [ -4.29535, 55.470278 ] } },
{ "type": "Feature", "properties": { "Name": "Audley End", "description": "\n        <div>Code: AUD<\/div>\n        <div>Owner: Greater Anglia<\/div>\n        <div>\n          <a href=\"https:\/\/www.doogal.co.uk\/StationMap.php?station=Audley%20End\">More information<\/a>\n        <\/div>\n      " }, "geometry": { "type": "Point", "coordinates": [ 0.20716, 52.004441 ] } },
{ "type": "Feature", "properties": { "Name": "Aughton Park", "description": "\n        <div>Code: AUG<\/div>\n        <div>Owner: Merseyrail<\/div>\n        <div>\n          <a href=\"https:\/\/www.doogal.co.uk\/StationMap.php?station=Aughton%20Park\">More information<\/a>\n        <\/div>\n      " }, "geometry": { "type": "Point", "coordinates": [ -2.895221, 53.55425 ] } },
{ "type": "Feature", "properties": { "Name": "Aviemore", "description": "\n        <div>Code: AVM<\/div>\n        <div>Owner: ScotRail<\/div>\n        <div>\n          <a href=\"https:\/\/www.doogal.co.uk\/StationMap.php?station=Aviemore\">More information<\/a>\n        <\/div>\n      " }, "geometry": { "type": "Point", "coordinates": [ -3.828868, 57.188516 ] } },
{ "type": "Feature", "properties": { "Name": "Avoncliff", "description": "\n        <div>Code: AVF<\/div>\n        <div>Owner: Great Western Railway<\/div>\n        <div>\n          <a href=\"https:\/\/www.doogal.co.uk\/StationMap.php?station=Avoncliff\">More information<\/a>\n        <\/div>\n      " }, "geometry": { "type": "Point", "coordinates": [ -2.281326, 51.339653 ] } },
{ "type": "Feature", "properties": { "Name": "Avonmouth", "description": "\n        <div>Code: AVN<\/div>\n        <div>Owner: Great Western Railway<\/div>\n        <div>\n          <a href=\"https:\/\/www.doogal.co.uk\/StationMap.php?station=Avonmouth\">More information<\/a>\n        <\/div>\n      " }, "geometry": { "type": "Point", "coordinates": [ -2.699467, 51.500365 ] } },
{ "type": "Feature", "properties": { "Name": "Axminster", "description": "\n        <div>Code: AXM<\/div>\n        <div>Owner: South Western Railway<\/div>\n        <div>\n          <a href=\"https:\/\/www.doogal.co.uk\/StationMap.php?station=Axminster\">More information<\/a>\n        <\/div>\n      " }, "geometry": { "type": "Point", "coordinates": [ -3.004724, 50.779274 ] } },
{ "type": "Feature", "properties": { "Name": "Aylesbury", "description": "\n        <div>Code: AYS<\/div>\n        <div>Owner: Chiltern Railways<\/div>\n        <div>\n          <a href=\"https:\/\/www.doogal.co.uk\/StationMap.php?station=Aylesbury\">More information<\/a>\n        <\/div>\n      " }, "geometry": { "type": "Point", "coordinates": [ -0.815096, 51.81389 ] } },
{ "type": "Feature", "properties": { "Name": "Aylesbury Vale Parkway", "description": "\n        <div>Code: AVP<\/div>\n        <div>Owner: Chiltern Railways<\/div>\n        <div>\n          <a href=\"https:\/\/www.doogal.co.uk\/StationMap.php?station=Aylesbury%20Vale%20Parkway\">More information<\/a>\n        <\/div>\n      " }, "geometry": { "type": "Point", "coordinates": [ -0.860182, 51.831159 ] } },
{ "type": "Feature", "properties": { "Name": "Aylesford", "description": "\n        <div>Code: AYL<\/div>\n        <div>Owner: Southeastern<\/div>\n        <div>\n          <a href=\"https:\/\/www.doogal.co.uk\/StationMap.php?station=Aylesford\">More information<\/a>\n        <\/div>\n      " }, "geometry": { "type": "Point", "coordinates": [ 0.466171, 51.301315 ] } },
{ "type": "Feature", "properties": { "Name": "Aylesham", "description": "\n        <div>Code: AYH<\/div>\n        <div>Owner: Southeastern<\/div>\n        <div>\n          <a href=\"https:\/\/www.doogal.co.uk\/StationMap.php?station=Aylesham\">More information<\/a>\n        <\/div>\n      " }, "geometry": { "type": "Point", "coordinates": [ 1.209453, 51.227251 ] } },
{ "type": "Feature", "properties": { "Name": "Ayr", "description": "\n        <div>Code: AYR<\/div>\n        <div>Owner: ScotRail<\/div>\n        <div>\n          <a href=\"https:\/\/www.doogal.co.uk\/StationMap.php?station=Ayr\">More information<\/a>\n        <\/div>\n      " }, "geometry": { "type": "Point", "coordinates": [ -4.625877, 55.458148 ] } },
{ "type": "Feature", "properties": { "Name": "Bache", "description": "\n        <div>Code: BAC<\/div>\n        <div>Owner: Merseyrail<\/div>\n        <div>\n          <a href=\"https:\/\/www.doogal.co.uk\/StationMap.php?station=Bache\">More information<\/a>\n        <\/div>\n      " }, "geometry": { "type": "Point", "coordinates": [ -2.891671, 53.208789 ] } },
{ "type": "Feature", "properties": { "Name": "Baglan", "description": "\n        <div>Code: BAJ<\/div>\n        <div>Owner: TfW Rail<\/div>\n        <div>\n          <a href=\"https:\/\/www.doogal.co.uk\/StationMap.php?station=Baglan\">More information<\/a>\n        <\/div>\n      " }, "geometry": { "type": "Point", "coordinates": [ -3.811137, 51.615545 ] } },
{ "type": "Feature", "properties": { "Name": "Bagshot", "description": "\n        <div>Code: BAG<\/div>\n        <div>Owner: South Western Railway<\/div>\n        <div>\n          <a href=\"https:\/\/www.doogal.co.uk\/StationMap.php?station=Bagshot\">More information<\/a>\n        <\/div>\n      " }, "geometry": { "type": "Point", "coordinates": [ -0.688662, 51.364367 ] } },
{ "type": "Feature", "properties": { "Name": "Baildon", "description": "\n        <div>Code: BLD<\/div>\n        <div>Owner: Northern Trains<\/div>\n        <div>\n          <a href=\"https:\/\/www.doogal.co.uk\/StationMap.php?station=Baildon\">More information<\/a>\n        <\/div>\n      " }, "geometry": { "type": "Point", "coordinates": [ -1.753636, 53.850226 ] } },
{ "type": "Feature", "properties": { "Name": "Baillieston", "description": "\n        <div>Code: BIO<\/div>\n        <div>Owner: ScotRail<\/div>\n        <div>\n          <a href=\"https:\/\/www.doogal.co.uk\/StationMap.php?station=Baillieston\">More information<\/a>\n        <\/div>\n      " }, "geometry": { "type": "Point", "coordinates": [ -4.113699, 55.844506 ] } },
{ "type": "Feature", "properties": { "Name": "Balcombe", "description": "\n        <div>Code: BAB<\/div>\n        <div>Owner: Govia Thameslink Railway (Southern)<\/div>\n        <div>\n          <a href=\"https:\/\/www.doogal.co.uk\/StationMap.php?station=Balcombe\">More information<\/a>\n        <\/div>\n      " }, "geometry": { "type": "Point", "coordinates": [ -0.136934, 51.05552 ] } },
{ "type": "Feature", "properties": { "Name": "Baldock", "description": "\n        <div>Code: BDK<\/div>\n        <div>Owner: Govia Thameslink Railway (Great Northern)<\/div>\n        <div>\n          <a href=\"https:\/\/www.doogal.co.uk\/StationMap.php?station=Baldock\">More information<\/a>\n        <\/div>\n      " }, "geometry": { "type": "Point", "coordinates": [ -0.187564, 51.99287 ] } },
{ "type": "Feature", "properties": { "Name": "Balham", "description": "\n        <div>Code: BAL<\/div>\n        <div>Owner: Govia Thameslink Railway (Southern)<\/div>\n        <div>\n          <a href=\"https:\/\/www.doogal.co.uk\/StationMap.php?station=Balham\">More information<\/a>\n        <\/div>\n      " }, "geometry": { "type": "Point", "coordinates": [ -0.152424, 51.443223 ] } },
{ "type": "Feature", "properties": { "Name": "Balloch", "description": "\n        <div>Code: BHC<\/div>\n        <div>Owner: ScotRail<\/div>\n        <div>\n          <a href=\"https:\/\/www.doogal.co.uk\/StationMap.php?station=Balloch\">More information<\/a>\n        <\/div>\n      " }, "geometry": { "type": "Point", "coordinates": [ -4.583487, 56.002939 ] } },
{ "type": "Feature", "properties": { "Name": "Balmossie", "description": "\n        <div>Code: BSI<\/div>\n        <div>Owner: ScotRail<\/div>\n        <div>\n          <a href=\"https:\/\/www.doogal.co.uk\/StationMap.php?station=Balmossie\">More information<\/a>\n        <\/div>\n      " }, "geometry": { "type": "Point", "coordinates": [ -2.838956, 56.474569 ] } },
{ "type": "Feature", "properties": { "Name": "Bamber Bridge", "description": "\n        <div>Code: BMB<\/div>\n        <div>Owner: Northern Trains<\/div>\n        <div>\n          <a href=\"https:\/\/www.doogal.co.uk\/StationMap.php?station=Bamber%20Bridge\">More information<\/a>\n        <\/div>\n      " }, "geometry": { "type": "Point", "coordinates": [ -2.660775, 53.726869 ] } },
{ "type": "Feature", "properties": { "Name": "Bamford", "description": "\n        <div>Code: BAM<\/div>\n        <div>Owner: Northern Trains<\/div>\n        <div>\n          <a href=\"https:\/\/www.doogal.co.uk\/StationMap.php?station=Bamford\">More information<\/a>\n        <\/div>\n      " }, "geometry": { "type": "Point", "coordinates": [ -1.689082, 53.339001 ] } },
{ "type": "Feature", "properties": { "Name": "Banavie", "description": "\n        <div>Code: BNV<\/div>\n        <div>Owner: ScotRail<\/div>\n        <div>\n          <a href=\"https:\/\/www.doogal.co.uk\/StationMap.php?station=Banavie\">More information<\/a>\n        <\/div>\n      " }, "geometry": { "type": "Point", "coordinates": [ -5.095427, 56.843315 ] } },
{ "type": "Feature", "properties": { "Name": "Banbury", "description": "\n        <div>Code: BAN<\/div>\n        <div>Owner: Chiltern Railways<\/div>\n        <div>\n          <a href=\"https:\/\/www.doogal.co.uk\/StationMap.php?station=Banbury\">More information<\/a>\n        <\/div>\n      " }, "geometry": { "type": "Point", "coordinates": [ -1.328133, 52.060309 ] } },
{ "type": "Feature", "properties": { "Name": "Bangor (Gwynedd)", "description": "\n        <div>Code: BNG<\/div>\n        <div>Owner: TfW Rail<\/div>\n        <div>\n          <a href=\"https:\/\/www.doogal.co.uk\/StationMap.php?station=Bangor%20(Gwynedd)\">More information<\/a>\n        <\/div>\n      " }, "geometry": { "type": "Point", "coordinates": [ -4.135881, 53.222288 ] } },
{ "type": "Feature", "properties": { "Name": "Bank Hall", "description": "\n        <div>Code: BAH<\/div>\n        <div>Owner: Merseyrail<\/div>\n        <div>\n          <a href=\"https:\/\/www.doogal.co.uk\/StationMap.php?station=Bank%20Hall\">More information<\/a>\n        <\/div>\n      " }, "geometry": { "type": "Point", "coordinates": [ -2.987512, 53.437497 ] } },
{ "type": "Feature", "properties": { "Name": "Banstead", "description": "\n        <div>Code: BAD<\/div>\n        <div>Owner: Govia Thameslink Railway (Southern)<\/div>\n        <div>\n          <a href=\"https:\/\/www.doogal.co.uk\/StationMap.php?station=Banstead\">More information<\/a>\n        <\/div>\n      " }, "geometry": { "type": "Point", "coordinates": [ -0.213159, 51.329347 ] } },
{ "type": "Feature", "properties": { "Name": "Barassie", "description": "\n        <div>Code: BSS<\/div>\n        <div>Owner: ScotRail<\/div>\n        <div>\n          <a href=\"https:\/\/www.doogal.co.uk\/StationMap.php?station=Barassie\">More information<\/a>\n        <\/div>\n      " }, "geometry": { "type": "Point", "coordinates": [ -4.65114, 55.561064 ] } },
{ "type": "Feature", "properties": { "Name": "Bardon Mill", "description": "\n        <div>Code: BLL<\/div>\n        <div>Owner: Northern Trains<\/div>\n        <div>\n          <a href=\"https:\/\/www.doogal.co.uk\/StationMap.php?station=Bardon%20Mill\">More information<\/a>\n        <\/div>\n      " }, "geometry": { "type": "Point", "coordinates": [ -2.346505, 54.974496 ] } },
{ "type": "Feature", "properties": { "Name": "Bare Lane", "description": "\n        <div>Code: BAR<\/div>\n        <div>Owner: Northern Trains<\/div>\n        <div>\n          <a href=\"https:\/\/www.doogal.co.uk\/StationMap.php?station=Bare%20Lane\">More information<\/a>\n        <\/div>\n      " }, "geometry": { "type": "Point", "coordinates": [ -2.835331, 54.074544 ] } },
{ "type": "Feature", "properties": { "Name": "Bargeddie", "description": "\n        <div>Code: BGI<\/div>\n        <div>Owner: ScotRail<\/div>\n        <div>\n          <a href=\"https:\/\/www.doogal.co.uk\/StationMap.php?station=Bargeddie\">More information<\/a>\n        <\/div>\n      " }, "geometry": { "type": "Point", "coordinates": [ -4.073808, 55.851296 ] } },
{ "type": "Feature", "properties": { "Name": "Bargoed", "description": "\n        <div>Code: BGD<\/div>\n        <div>Owner: TfW Rail<\/div>\n        <div>\n          <a href=\"https:\/\/www.doogal.co.uk\/StationMap.php?station=Bargoed\">More information<\/a>\n        <\/div>\n      " }, "geometry": { "type": "Point", "coordinates": [ -3.22968, 51.692313 ] } },
{ "type": "Feature", "properties": { "Name": "Barking", "description": "\n        <div>Code: BKG<\/div>\n        <div>Owner: c2c<\/div>\n        <div>\n          <a href=\"https:\/\/www.doogal.co.uk\/StationMap.php?station=Barking\">More information<\/a>\n        <\/div>\n      " }, "geometry": { "type": "Point", "coordinates": [ 0.080902, 51.539493 ] } },
{ "type": "Feature", "properties": { "Name": "Barming", "description": "\n        <div>Code: BMG<\/div>\n        <div>Owner: Southeastern<\/div>\n        <div>\n          <a href=\"https:\/\/www.doogal.co.uk\/StationMap.php?station=Barming\">More information<\/a>\n        <\/div>\n      " }, "geometry": { "type": "Point", "coordinates": [ 0.478958, 51.284893 ] } },
{ "type": "Feature", "properties": { "Name": "Barmouth", "description": "\n        <div>Code: BRM<\/div>\n        <div>Owner: TfW Rail<\/div>\n        <div>\n          <a href=\"https:\/\/www.doogal.co.uk\/StationMap.php?station=Barmouth\">More information<\/a>\n        <\/div>\n      " }, "geometry": { "type": "Point", "coordinates": [ -4.056597, 52.722895 ] } },
{ "type": "Feature", "properties": { "Name": "Barnehurst", "description": "\n        <div>Code: BNH<\/div>\n        <div>Owner: Southeastern<\/div>\n        <div>\n          <a href=\"https:\/\/www.doogal.co.uk\/StationMap.php?station=Barnehurst\">More information<\/a>\n        <\/div>\n      " }, "geometry": { "type": "Point", "coordinates": [ 0.159646, 51.464957 ] } },
{ "type": "Feature", "properties": { "Name": "Barnes", "description": "\n        <div>Code: BNS<\/div>\n        <div>Owner: South Western Railway<\/div>\n        <div>\n          <a href=\"https:\/\/www.doogal.co.uk\/StationMap.php?station=Barnes\">More information<\/a>\n        <\/div>\n      " }, "geometry": { "type": "Point", "coordinates": [ -0.242164, 51.467085 ] } },
{ "type": "Feature", "properties": { "Name": "Barnes Bridge", "description": "\n        <div>Code: BNI<\/div>\n        <div>Owner: South Western Railway<\/div>\n        <div>\n          <a href=\"https:\/\/www.doogal.co.uk\/StationMap.php?station=Barnes%20Bridge\">More information<\/a>\n        <\/div>\n      " }, "geometry": { "type": "Point", "coordinates": [ -0.25263, 51.472007 ] } },
{ "type": "Feature", "properties": { "Name": "Barnetby", "description": "\n        <div>Code: BTB<\/div>\n        <div>Owner: TransPennine Express<\/div>\n        <div>\n          <a href=\"https:\/\/www.doogal.co.uk\/StationMap.php?station=Barnetby\">More information<\/a>\n        <\/div>\n      " }, "geometry": { "type": "Point", "coordinates": [ -0.40968, 53.57512 ] } },
{ "type": "Feature", "properties": { "Name": "Barnham", "description": "\n        <div>Code: BAA<\/div>\n        <div>Owner: Govia Thameslink Railway (Southern)<\/div>\n        <div>\n          <a href=\"https:\/\/www.doogal.co.uk\/StationMap.php?station=Barnham\">More information<\/a>\n        <\/div>\n      " }, "geometry": { "type": "Point", "coordinates": [ -0.63968, 50.830906 ] } },
{ "type": "Feature", "properties": { "Name": "Barnhill", "description": "\n        <div>Code: BNL<\/div>\n        <div>Owner: ScotRail<\/div>\n        <div>\n          <a href=\"https:\/\/www.doogal.co.uk\/StationMap.php?station=Barnhill\">More information<\/a>\n        <\/div>\n      " }, "geometry": { "type": "Point", "coordinates": [ -4.223006, 55.877495 ] } },
{ "type": "Feature", "properties": { "Name": "Barnsley", "description": "\n        <div>Code: BNY<\/div>\n        <div>Owner: Northern Trains<\/div>\n        <div>\n          <a href=\"https:\/\/www.doogal.co.uk\/StationMap.php?station=Barnsley\">More information<\/a>\n        <\/div>\n      " }, "geometry": { "type": "Point", "coordinates": [ -1.477165, 53.554302 ] } },
{ "type": "Feature", "properties": { "Name": "Barnstaple", "description": "\n        <div>Code: BNP<\/div>\n        <div>Owner: Great Western Railway<\/div>\n        <div>\n          <a href=\"https:\/\/www.doogal.co.uk\/StationMap.php?station=Barnstaple\">More information<\/a>\n        <\/div>\n      " }, "geometry": { "type": "Point", "coordinates": [ -4.063118, 51.073974 ] } },
{ "type": "Feature", "properties": { "Name": "Barnt Green", "description": "\n        <div>Code: BTG<\/div>\n        <div>Owner: West Midlands Trains (West Midlands Railway)<\/div>\n        <div>\n          <a href=\"https:\/\/www.doogal.co.uk\/StationMap.php?station=Barnt%20Green\">More information<\/a>\n        <\/div>\n      " }, "geometry": { "type": "Point", "coordinates": [ -1.992467, 52.36109 ] } },
{ "type": "Feature", "properties": { "Name": "Barrhead", "description": "\n        <div>Code: BRR<\/div>\n        <div>Owner: ScotRail<\/div>\n        <div>\n          <a href=\"https:\/\/www.doogal.co.uk\/StationMap.php?station=Barrhead\">More information<\/a>\n        <\/div>\n      " }, "geometry": { "type": "Point", "coordinates": [ -4.397284, 55.803758 ] } },
{ "type": "Feature", "properties": { "Name": "Barrhill", "description": "\n        <div>Code: BRL<\/div>\n        <div>Owner: ScotRail<\/div>\n        <div>\n          <a href=\"https:\/\/www.doogal.co.uk\/StationMap.php?station=Barrhill\">More information<\/a>\n        <\/div>\n      " }, "geometry": { "type": "Point", "coordinates": [ -4.781782, 55.097011 ] } },
{ "type": "Feature", "properties": { "Name": "Barrow Haven", "description": "\n        <div>Code: BAV<\/div>\n        <div>Owner: Northern Trains<\/div>\n        <div>\n          <a href=\"https:\/\/www.doogal.co.uk\/StationMap.php?station=Barrow%20Haven\">More information<\/a>\n        <\/div>\n      " }, "geometry": { "type": "Point", "coordinates": [ -0.392955, 53.69742 ] } },
{ "type": "Feature", "properties": { "Name": "Barrow-In-Furness", "description": "\n        <div>Code: BIF<\/div>\n        <div>Owner: Northern Trains<\/div>\n        <div>\n          <a href=\"https:\/\/www.doogal.co.uk\/StationMap.php?station=Barrow-In-Furness\">More information<\/a>\n        <\/div>\n      " }, "geometry": { "type": "Point", "coordinates": [ -3.226121, 54.119004 ] } },
{ "type": "Feature", "properties": { "Name": "Barrow-Upon-Soar", "description": "\n        <div>Code: BWS<\/div>\n        <div>Owner: East Midlands Railway<\/div>\n        <div>\n          <a href=\"https:\/\/www.doogal.co.uk\/StationMap.php?station=Barrow-Upon-Soar\">More information<\/a>\n        <\/div>\n      " }, "geometry": { "type": "Point", "coordinates": [ -1.144843, 52.749336 ] } },
{ "type": "Feature", "properties": { "Name": "Barry", "description": "\n        <div>Code: BRY<\/div>\n        <div>Owner: TfW Rail<\/div>\n        <div>\n          <a href=\"https:\/\/www.doogal.co.uk\/StationMap.php?station=Barry\">More information<\/a>\n        <\/div>\n      " }, "geometry": { "type": "Point", "coordinates": [ -3.284985, 51.396786 ] } },
{ "type": "Feature", "properties": { "Name": "Barry Docks", "description": "\n        <div>Code: BYD<\/div>\n        <div>Owner: TfW Rail<\/div>\n        <div>\n          <a href=\"https:\/\/www.doogal.co.uk\/StationMap.php?station=Barry%20Docks\">More information<\/a>\n        <\/div>\n      " }, "geometry": { "type": "Point", "coordinates": [ -3.260704, 51.402445 ] } },
{ "type": "Feature", "properties": { "Name": "Barry Island", "description": "\n        <div>Code: BYI<\/div>\n        <div>Owner: TfW Rail<\/div>\n        <div>\n          <a href=\"https:\/\/www.doogal.co.uk\/StationMap.php?station=Barry%20Island\">More information<\/a>\n        <\/div>\n      " }, "geometry": { "type": "Point", "coordinates": [ -3.273364, 51.392417 ] } },
{ "type": "Feature", "properties": { "Name": "Barry Links", "description": "\n        <div>Code: BYL<\/div>\n        <div>Owner: ScotRail<\/div>\n        <div>\n          <a href=\"https:\/\/www.doogal.co.uk\/StationMap.php?station=Barry%20Links\">More information<\/a>\n        <\/div>\n      " }, "geometry": { "type": "Point", "coordinates": [ -2.745442, 56.493152 ] } },
{ "type": "Feature", "properties": { "Name": "Barton-On-Humber", "description": "\n        <div>Code: BAU<\/div>\n        <div>Owner: Northern Trains<\/div>\n        <div>\n          <a href=\"https:\/\/www.doogal.co.uk\/StationMap.php?station=Barton-On-Humber\">More information<\/a>\n        <\/div>\n      " }, "geometry": { "type": "Point", "coordinates": [ -0.443437, 53.688918 ] } },
{ "type": "Feature", "properties": { "Name": "Basildon", "description": "\n        <div>Code: BSO<\/div>\n        <div>Owner: c2c<\/div>\n        <div>\n          <a href=\"https:\/\/www.doogal.co.uk\/StationMap.php?station=Basildon\">More information<\/a>\n        <\/div>\n      " }, "geometry": { "type": "Point", "coordinates": [ 0.456789, 51.568104 ] } },
{ "type": "Feature", "properties": { "Name": "Basingstoke", "description": "\n        <div>Code: BSK<\/div>\n        <div>Owner: South Western Railway<\/div>\n        <div>\n          <a href=\"https:\/\/www.doogal.co.uk\/StationMap.php?station=Basingstoke\">More information<\/a>\n        <\/div>\n      " }, "geometry": { "type": "Point", "coordinates": [ -1.087264, 51.268357 ] } },
{ "type": "Feature", "properties": { "Name": "Bat and Ball", "description": "\n        <div>Code: BBL<\/div>\n        <div>Owner: Southeastern<\/div>\n        <div>\n          <a href=\"https:\/\/www.doogal.co.uk\/StationMap.php?station=Bat%20and%20Ball\">More information<\/a>\n        <\/div>\n      " }, "geometry": { "type": "Point", "coordinates": [ 0.194227, 51.289759 ] } },
{ "type": "Feature", "properties": { "Name": "Bath Spa", "description": "\n        <div>Code: BTH<\/div>\n        <div>Owner: Great Western Railway<\/div>\n        <div>\n          <a href=\"https:\/\/www.doogal.co.uk\/StationMap.php?station=Bath%20Spa\">More information<\/a>\n        <\/div>\n      " }, "geometry": { "type": "Point", "coordinates": [ -2.357018, 51.377688 ] } },
{ "type": "Feature", "properties": { "Name": "Bathgate", "description": "\n        <div>Code: BHG<\/div>\n        <div>Owner: ScotRail<\/div>\n        <div>\n          <a href=\"https:\/\/www.doogal.co.uk\/StationMap.php?station=Bathgate\">More information<\/a>\n        <\/div>\n      " }, "geometry": { "type": "Point", "coordinates": [ -3.636097, 55.897156 ] } },
{ "type": "Feature", "properties": { "Name": "Batley", "description": "\n        <div>Code: BTL<\/div>\n        <div>Owner: Northern Trains<\/div>\n        <div>\n          <a href=\"https:\/\/www.doogal.co.uk\/StationMap.php?station=Batley\">More information<\/a>\n        <\/div>\n      " }, "geometry": { "type": "Point", "coordinates": [ -1.622953, 53.709942 ] } },
{ "type": "Feature", "properties": { "Name": "Battersby", "description": "\n        <div>Code: BTT<\/div>\n        <div>Owner: Northern Trains<\/div>\n        <div>\n          <a href=\"https:\/\/www.doogal.co.uk\/StationMap.php?station=Battersby\">More information<\/a>\n        <\/div>\n      " }, "geometry": { "type": "Point", "coordinates": [ -1.092972, 54.45768 ] } },
{ "type": "Feature", "properties": { "Name": "Battersea Park", "description": "\n        <div>Code: BAK<\/div>\n        <div>Owner: Govia Thameslink Railway (Southern)<\/div>\n        <div>\n          <a href=\"https:\/\/www.doogal.co.uk\/StationMap.php?station=Battersea%20Park\">More information<\/a>\n        <\/div>\n      " }, "geometry": { "type": "Point", "coordinates": [ -0.147534, 51.476958 ] } },
{ "type": "Feature", "properties": { "Name": "Battle", "description": "\n        <div>Code: BAT<\/div>\n        <div>Owner: Southeastern<\/div>\n        <div>\n          <a href=\"https:\/\/www.doogal.co.uk\/StationMap.php?station=Battle\">More information<\/a>\n        <\/div>\n      " }, "geometry": { "type": "Point", "coordinates": [ 0.494703, 50.912913 ] } },
{ "type": "Feature", "properties": { "Name": "Battlesbridge", "description": "\n        <div>Code: BLB<\/div>\n        <div>Owner: Greater Anglia<\/div>\n        <div>\n          <a href=\"https:\/\/www.doogal.co.uk\/StationMap.php?station=Battlesbridge\">More information<\/a>\n        <\/div>\n      " }, "geometry": { "type": "Point", "coordinates": [ 0.565286, 51.624823 ] } },
{ "type": "Feature", "properties": { "Name": "Bayford", "description": "\n        <div>Code: BAY<\/div>\n        <div>Owner: Govia Thameslink Railway (Great Northern)<\/div>\n        <div>\n          <a href=\"https:\/\/www.doogal.co.uk\/StationMap.php?station=Bayford\">More information<\/a>\n        <\/div>\n      " }, "geometry": { "type": "Point", "coordinates": [ -0.09561, 51.757715 ] } },
{ "type": "Feature", "properties": { "Name": "Beaconsfield", "description": "\n        <div>Code: BCF<\/div>\n        <div>Owner: Chiltern Railways<\/div>\n        <div>\n          <a href=\"https:\/\/www.doogal.co.uk\/StationMap.php?station=Beaconsfield\">More information<\/a>\n        <\/div>\n      " }, "geometry": { "type": "Point", "coordinates": [ -0.643822, 51.611291 ] } },
{ "type": "Feature", "properties": { "Name": "Bearley", "description": "\n        <div>Code: BER<\/div>\n        <div>Owner: West Midlands Trains (West Midlands Railway)<\/div>\n        <div>\n          <a href=\"https:\/\/www.doogal.co.uk\/StationMap.php?station=Bearley\">More information<\/a>\n        <\/div>\n      " }, "geometry": { "type": "Point", "coordinates": [ -1.750255, 52.244412 ] } },
{ "type": "Feature", "properties": { "Name": "Bearsden", "description": "\n        <div>Code: BRN<\/div>\n        <div>Owner: ScotRail<\/div>\n        <div>\n          <a href=\"https:\/\/www.doogal.co.uk\/StationMap.php?station=Bearsden\">More information<\/a>\n        <\/div>\n      " }, "geometry": { "type": "Point", "coordinates": [ -4.332021, 55.917135 ] } },
{ "type": "Feature", "properties": { "Name": "Bearsted", "description": "\n        <div>Code: BSD<\/div>\n        <div>Owner: Southeastern<\/div>\n        <div>\n          <a href=\"https:\/\/www.doogal.co.uk\/StationMap.php?station=Bearsted\">More information<\/a>\n        <\/div>\n      " }, "geometry": { "type": "Point", "coordinates": [ 0.57758, 51.275819 ] } },
{ "type": "Feature", "properties": { "Name": "Beasdale", "description": "\n        <div>Code: BSL<\/div>\n        <div>Owner: ScotRail<\/div>\n        <div>\n          <a href=\"https:\/\/www.doogal.co.uk\/StationMap.php?station=Beasdale\">More information<\/a>\n        <\/div>\n      " }, "geometry": { "type": "Point", "coordinates": [ -5.763803, 56.899561 ] } },
{ "type": "Feature", "properties": { "Name": "Beaulieu Road", "description": "\n        <div>Code: BEU<\/div>\n        <div>Owner: South Western Railway<\/div>\n        <div>\n          <a href=\"https:\/\/www.doogal.co.uk\/StationMap.php?station=Beaulieu%20Road\">More information<\/a>\n        <\/div>\n      " }, "geometry": { "type": "Point", "coordinates": [ -1.50475, 50.855049 ] } },
{ "type": "Feature", "properties": { "Name": "Beauly", "description": "\n        <div>Code: BEL<\/div>\n        <div>Owner: ScotRail<\/div>\n        <div>\n          <a href=\"https:\/\/www.doogal.co.uk\/StationMap.php?station=Beauly\">More information<\/a>\n        <\/div>\n      " }, "geometry": { "type": "Point", "coordinates": [ -4.469867, 57.478288 ] } },
{ "type": "Feature", "properties": { "Name": "Bebington", "description": "\n        <div>Code: BEB<\/div>\n        <div>Owner: Merseyrail<\/div>\n        <div>\n          <a href=\"https:\/\/www.doogal.co.uk\/StationMap.php?station=Bebington\">More information<\/a>\n        <\/div>\n      " }, "geometry": { "type": "Point", "coordinates": [ -3.003635, 53.357657 ] } },
{ "type": "Feature", "properties": { "Name": "Beccles", "description": "\n        <div>Code: BCC<\/div>\n        <div>Owner: Greater Anglia<\/div>\n        <div>\n          <a href=\"https:\/\/www.doogal.co.uk\/StationMap.php?station=Beccles\">More information<\/a>\n        <\/div>\n      " }, "geometry": { "type": "Point", "coordinates": [ 1.569493, 52.458518 ] } },
{ "type": "Feature", "properties": { "Name": "Beckenham Hill", "description": "\n        <div>Code: BEC<\/div>\n        <div>Owner: Govia Thameslink Railway (Thameslink)<\/div>\n        <div>\n          <a href=\"https:\/\/www.doogal.co.uk\/StationMap.php?station=Beckenham%20Hill\">More information<\/a>\n        <\/div>\n      " }, "geometry": { "type": "Point", "coordinates": [ -0.015951, 51.424581 ] } },
{ "type": "Feature", "properties": { "Name": "Beckenham Junction", "description": "\n        <div>Code: BKJ<\/div>\n        <div>Owner: Southeastern<\/div>\n        <div>\n          <a href=\"https:\/\/www.doogal.co.uk\/StationMap.php?station=Beckenham%20Junction\">More information<\/a>\n        <\/div>\n      " }, "geometry": { "type": "Point", "coordinates": [ -0.026023, 51.411172 ] } },
{ "type": "Feature", "properties": { "Name": "Bedford", "description": "\n        <div>Code: BDM<\/div>\n        <div>Owner: Govia Thameslink Railway (Thameslink)<\/div>\n        <div>\n          <a href=\"https:\/\/www.doogal.co.uk\/StationMap.php?station=Bedford\">More information<\/a>\n        <\/div>\n      " }, "geometry": { "type": "Point", "coordinates": [ -0.479442, 52.136186 ] } },
{ "type": "Feature", "properties": { "Name": "Bedford St Johns", "description": "\n        <div>Code: BSJ<\/div>\n        <div>Owner: West Midlands Trains (London Northwestern Railway)<\/div>\n        <div>\n          <a href=\"https:\/\/www.doogal.co.uk\/StationMap.php?station=Bedford%20St%20Johns\">More information<\/a>\n        <\/div>\n      " }, "geometry": { "type": "Point", "coordinates": [ -0.467501, 52.129477 ] } },
{ "type": "Feature", "properties": { "Name": "Bedhampton", "description": "\n        <div>Code: BDH<\/div>\n        <div>Owner: South Western Railway<\/div>\n        <div>\n          <a href=\"https:\/\/www.doogal.co.uk\/StationMap.php?station=Bedhampton\">More information<\/a>\n        <\/div>\n      " }, "geometry": { "type": "Point", "coordinates": [ -0.995828, 50.853957 ] } },
{ "type": "Feature", "properties": { "Name": "Bedminster", "description": "\n        <div>Code: BMT<\/div>\n        <div>Owner: Great Western Railway<\/div>\n        <div>\n          <a href=\"https:\/\/www.doogal.co.uk\/StationMap.php?station=Bedminster\">More information<\/a>\n        <\/div>\n      " }, "geometry": { "type": "Point", "coordinates": [ -2.594149, 51.44009 ] } },
{ "type": "Feature", "properties": { "Name": "Bedworth", "description": "\n        <div>Code: BEH<\/div>\n        <div>Owner: West Midlands Trains (West Midlands Railway)<\/div>\n        <div>\n          <a href=\"https:\/\/www.doogal.co.uk\/StationMap.php?station=Bedworth\">More information<\/a>\n        <\/div>\n      " }, "geometry": { "type": "Point", "coordinates": [ -1.467392, 52.479297 ] } },
{ "type": "Feature", "properties": { "Name": "Bedwyn", "description": "\n        <div>Code: BDW<\/div>\n        <div>Owner: Great Western Railway<\/div>\n        <div>\n          <a href=\"https:\/\/www.doogal.co.uk\/StationMap.php?station=Bedwyn\">More information<\/a>\n        <\/div>\n      " }, "geometry": { "type": "Point", "coordinates": [ -1.598786, 51.379641 ] } },
{ "type": "Feature", "properties": { "Name": "Beeston", "description": "\n        <div>Code: BEE<\/div>\n        <div>Owner: East Midlands Railway<\/div>\n        <div>\n          <a href=\"https:\/\/www.doogal.co.uk\/StationMap.php?station=Beeston\">More information<\/a>\n        <\/div>\n      " }, "geometry": { "type": "Point", "coordinates": [ -1.207658, 52.920755 ] } },
{ "type": "Feature", "properties": { "Name": "Bekesbourne", "description": "\n        <div>Code: BKS<\/div>\n        <div>Owner: Southeastern<\/div>\n        <div>\n          <a href=\"https:\/\/www.doogal.co.uk\/StationMap.php?station=Bekesbourne\">More information<\/a>\n        <\/div>\n      " }, "geometry": { "type": "Point", "coordinates": [ 1.136708, 51.261354 ] } },
{ "type": "Feature", "properties": { "Name": "Belle Vue", "description": "\n        <div>Code: BLV<\/div>\n        <div>Owner: Northern Trains<\/div>\n        <div>\n          <a href=\"https:\/\/www.doogal.co.uk\/StationMap.php?station=Belle%20Vue\">More information<\/a>\n        <\/div>\n      " }, "geometry": { "type": "Point", "coordinates": [ -2.180507, 53.462376 ] } },
{ "type": "Feature", "properties": { "Name": "Bellgrove", "description": "\n        <div>Code: BLG<\/div>\n        <div>Owner: ScotRail<\/div>\n        <div>\n          <a href=\"https:\/\/www.doogal.co.uk\/StationMap.php?station=Bellgrove\">More information<\/a>\n        <\/div>\n      " }, "geometry": { "type": "Point", "coordinates": [ -4.224375, 55.856709 ] } },
{ "type": "Feature", "properties": { "Name": "Bellingham", "description": "\n        <div>Code: BGM<\/div>\n        <div>Owner: Govia Thameslink Railway (Thameslink)<\/div>\n        <div>\n          <a href=\"https:\/\/www.doogal.co.uk\/StationMap.php?station=Bellingham\">More information<\/a>\n        <\/div>\n      " }, "geometry": { "type": "Point", "coordinates": [ -0.019331, 51.432911 ] } },
{ "type": "Feature", "properties": { "Name": "Bellshill", "description": "\n        <div>Code: BLH<\/div>\n        <div>Owner: ScotRail<\/div>\n        <div>\n          <a href=\"https:\/\/www.doogal.co.uk\/StationMap.php?station=Bellshill\">More information<\/a>\n        <\/div>\n      " }, "geometry": { "type": "Point", "coordinates": [ -4.0245, 55.817068 ] } },
{ "type": "Feature", "properties": { "Name": "Belmont", "description": "\n        <div>Code: BLM<\/div>\n        <div>Owner: Govia Thameslink Railway (Southern)<\/div>\n        <div>\n          <a href=\"https:\/\/www.doogal.co.uk\/StationMap.php?station=Belmont\">More information<\/a>\n        <\/div>\n      " }, "geometry": { "type": "Point", "coordinates": [ -0.198855, 51.343813 ] } },
{ "type": "Feature", "properties": { "Name": "Belper", "description": "\n        <div>Code: BLP<\/div>\n        <div>Owner: East Midlands Railway<\/div>\n        <div>\n          <a href=\"https:\/\/www.doogal.co.uk\/StationMap.php?station=Belper\">More information<\/a>\n        <\/div>\n      " }, "geometry": { "type": "Point", "coordinates": [ -1.48251, 53.023759 ] } },
{ "type": "Feature", "properties": { "Name": "Beltring", "description": "\n        <div>Code: BEG<\/div>\n        <div>Owner: Southeastern<\/div>\n        <div>\n          <a href=\"https:\/\/www.doogal.co.uk\/StationMap.php?station=Beltring\">More information<\/a>\n        <\/div>\n      " }, "geometry": { "type": "Point", "coordinates": [ 0.403495, 51.204706 ] } },
{ "type": "Feature", "properties": { "Name": "Belvedere", "description": "\n        <div>Code: BVD<\/div>\n        <div>Owner: Southeastern<\/div>\n        <div>\n          <a href=\"https:\/\/www.doogal.co.uk\/StationMap.php?station=Belvedere\">More information<\/a>\n        <\/div>\n      " }, "geometry": { "type": "Point", "coordinates": [ 0.152286, 51.492116 ] } },
{ "type": "Feature", "properties": { "Name": "Bempton", "description": "\n        <div>Code: BEM<\/div>\n        <div>Owner: Northern Trains<\/div>\n        <div>\n          <a href=\"https:\/\/www.doogal.co.uk\/StationMap.php?station=Bempton\">More information<\/a>\n        <\/div>\n      " }, "geometry": { "type": "Point", "coordinates": [ -0.180457, 54.127658 ] } },
{ "type": "Feature", "properties": { "Name": "Ben Rhydding", "description": "\n        <div>Code: BEY<\/div>\n        <div>Owner: Northern Trains<\/div>\n        <div>\n          <a href=\"https:\/\/www.doogal.co.uk\/StationMap.php?station=Ben%20Rhydding\">More information<\/a>\n        <\/div>\n      " }, "geometry": { "type": "Point", "coordinates": [ -1.79743, 53.925715 ] } },
{ "type": "Feature", "properties": { "Name": "Benfleet", "description": "\n        <div>Code: BEF<\/div>\n        <div>Owner: c2c<\/div>\n        <div>\n          <a href=\"https:\/\/www.doogal.co.uk\/StationMap.php?station=Benfleet\">More information<\/a>\n        <\/div>\n      " }, "geometry": { "type": "Point", "coordinates": [ 0.561713, 51.543942 ] } },
{ "type": "Feature", "properties": { "Name": "Bentham", "description": "\n        <div>Code: BEN<\/div>\n        <div>Owner: Northern Trains<\/div>\n        <div>\n          <a href=\"https:\/\/www.doogal.co.uk\/StationMap.php?station=Bentham\">More information<\/a>\n        <\/div>\n      " }, "geometry": { "type": "Point", "coordinates": [ -2.510677, 54.11552 ] } },
{ "type": "Feature", "properties": { "Name": "Bentley (Hampshire)", "description": "\n        <div>Code: BTY<\/div>\n        <div>Owner: South Western Railway<\/div>\n        <div>\n          <a href=\"https:\/\/www.doogal.co.uk\/StationMap.php?station=Bentley%20(Hampshire)\">More information<\/a>\n        <\/div>\n      " }, "geometry": { "type": "Point", "coordinates": [ -0.868127, 51.181233 ] } },
{ "type": "Feature", "properties": { "Name": "Bentley (South Yorkshire)", "description": "\n        <div>Code: BYK<\/div>\n        <div>Owner: Northern Trains<\/div>\n        <div>\n          <a href=\"https:\/\/www.doogal.co.uk\/StationMap.php?station=Bentley%20(South%20Yorkshire)\">More information<\/a>\n        <\/div>\n      " }, "geometry": { "type": "Point", "coordinates": [ -1.150949, 53.543937 ] } },
{ "type": "Feature", "properties": { "Name": "Bere Alston", "description": "\n        <div>Code: BAS<\/div>\n        <div>Owner: Great Western Railway<\/div>\n        <div>\n          <a href=\"https:\/\/www.doogal.co.uk\/StationMap.php?station=Bere%20Alston\">More information<\/a>\n        <\/div>\n      " }, "geometry": { "type": "Point", "coordinates": [ -4.200355, 50.485599 ] } },
{ "type": "Feature", "properties": { "Name": "Bere Ferrers", "description": "\n        <div>Code: BFE<\/div>\n        <div>Owner: Great Western Railway<\/div>\n        <div>\n          <a href=\"https:\/\/www.doogal.co.uk\/StationMap.php?station=Bere%20Ferrers\">More information<\/a>\n        <\/div>\n      " }, "geometry": { "type": "Point", "coordinates": [ -4.181435, 50.451282 ] } },
{ "type": "Feature", "properties": { "Name": "Berkhamsted", "description": "\n        <div>Code: BKM<\/div>\n        <div>Owner: West Midlands Trains (London Northwestern Railway)<\/div>\n        <div>\n          <a href=\"https:\/\/www.doogal.co.uk\/StationMap.php?station=Berkhamsted\">More information<\/a>\n        <\/div>\n      " }, "geometry": { "type": "Point", "coordinates": [ -0.562013, 51.763133 ] } },
{ "type": "Feature", "properties": { "Name": "Berkswell", "description": "\n        <div>Code: BKW<\/div>\n        <div>Owner: West Midlands Trains (West Midlands Railway)<\/div>\n        <div>\n          <a href=\"https:\/\/www.doogal.co.uk\/StationMap.php?station=Berkswell\">More information<\/a>\n        <\/div>\n      " }, "geometry": { "type": "Point", "coordinates": [ -1.64284, 52.395882 ] } },
{ "type": "Feature", "properties": { "Name": "Bermuda Park", "description": "\n        <div>Code: BEP<\/div>\n        <div>Owner: West Midlands Trains (West Midlands Railway)<\/div>\n        <div>\n          <a href=\"https:\/\/www.doogal.co.uk\/StationMap.php?station=Bermuda%20Park\">More information<\/a>\n        <\/div>\n      " }, "geometry": { "type": "Point", "coordinates": [ -1.472178, 52.501434 ] } },
{ "type": "Feature", "properties": { "Name": "Berney Arms", "description": "\n        <div>Code: BYA<\/div>\n        <div>Owner: Greater Anglia<\/div>\n        <div>\n          <a href=\"https:\/\/www.doogal.co.uk\/StationMap.php?station=Berney%20Arms\">More information<\/a>\n        <\/div>\n      " }, "geometry": { "type": "Point", "coordinates": [ 1.630375, 52.589783 ] } },
{ "type": "Feature", "properties": { "Name": "Berry Brow", "description": "\n        <div>Code: BBW<\/div>\n        <div>Owner: Northern Trains<\/div>\n        <div>\n          <a href=\"https:\/\/www.doogal.co.uk\/StationMap.php?station=Berry%20Brow\">More information<\/a>\n        <\/div>\n      " }, "geometry": { "type": "Point", "coordinates": [ -1.793432, 53.621042 ] } },
{ "type": "Feature", "properties": { "Name": "Berrylands", "description": "\n        <div>Code: BRS<\/div>\n        <div>Owner: South Western Railway<\/div>\n        <div>\n          <a href=\"https:\/\/www.doogal.co.uk\/StationMap.php?station=Berrylands\">More information<\/a>\n        <\/div>\n      " }, "geometry": { "type": "Point", "coordinates": [ -0.280714, 51.399044 ] } },
{ "type": "Feature", "properties": { "Name": "Berwick (Sussex)", "description": "\n        <div>Code: BRK<\/div>\n        <div>Owner: Govia Thameslink Railway (Southern)<\/div>\n        <div>\n          <a href=\"https:\/\/www.doogal.co.uk\/StationMap.php?station=Berwick%20(Sussex)\">More information<\/a>\n        <\/div>\n      " }, "geometry": { "type": "Point", "coordinates": [ 0.166018, 50.840376 ] } },
{ "type": "Feature", "properties": { "Name": "Berwick-Upon-Tweed", "description": "\n        <div>Code: BWK<\/div>\n        <div>Owner: London North Eastern Railway<\/div>\n        <div>\n          <a href=\"https:\/\/www.doogal.co.uk\/StationMap.php?station=Berwick-Upon-Tweed\">More information<\/a>\n        <\/div>\n      " }, "geometry": { "type": "Point", "coordinates": [ -2.010974, 55.774339 ] } },
{ "type": "Feature", "properties": { "Name": "Bescar Lane", "description": "\n        <div>Code: BES<\/div>\n        <div>Owner: Northern Trains<\/div>\n        <div>\n          <a href=\"https:\/\/www.doogal.co.uk\/StationMap.php?station=Bescar%20Lane\">More information<\/a>\n        <\/div>\n      " }, "geometry": { "type": "Point", "coordinates": [ -2.914611, 53.623855 ] } },
{ "type": "Feature", "properties": { "Name": "Bescot Stadium", "description": "\n        <div>Code: BSC<\/div>\n        <div>Owner: West Midlands Trains (West Midlands Railway)<\/div>\n        <div>\n          <a href=\"https:\/\/www.doogal.co.uk\/StationMap.php?station=Bescot%20Stadium\">More information<\/a>\n        <\/div>\n      " }, "geometry": { "type": "Point", "coordinates": [ -1.991106, 52.563095 ] } },
{ "type": "Feature", "properties": { "Name": "Betchworth", "description": "\n        <div>Code: BTO<\/div>\n        <div>Owner: Great Western Railway<\/div>\n        <div>\n          <a href=\"https:\/\/www.doogal.co.uk\/StationMap.php?station=Betchworth\">More information<\/a>\n        <\/div>\n      " }, "geometry": { "type": "Point", "coordinates": [ -0.266973, 51.248188 ] } },
{ "type": "Feature", "properties": { "Name": "Bethnal Green Rail", "description": "\n        <div>Code: BET<\/div>\n        <div>Owner: London Overground<\/div>\n        <div>\n          <a href=\"https:\/\/www.doogal.co.uk\/StationMap.php?station=Bethnal%20Green%20Rail\">More information<\/a>\n        <\/div>\n      " }, "geometry": { "type": "Point", "coordinates": [ -0.059568, 51.523916 ] } },
{ "type": "Feature", "properties": { "Name": "Betws-y-Coed", "description": "\n        <div>Code: BYC<\/div>\n        <div>Owner: TfW Rail<\/div>\n        <div>\n          <a href=\"https:\/\/www.doogal.co.uk\/StationMap.php?station=Betws-y-Coed\">More information<\/a>\n        <\/div>\n      " }, "geometry": { "type": "Point", "coordinates": [ -3.800862, 53.092071 ] } },
{ "type": "Feature", "properties": { "Name": "Beverley", "description": "\n        <div>Code: BEV<\/div>\n        <div>Owner: Northern Trains<\/div>\n        <div>\n          <a href=\"https:\/\/www.doogal.co.uk\/StationMap.php?station=Beverley\">More information<\/a>\n        <\/div>\n      " }, "geometry": { "type": "Point", "coordinates": [ -0.42298, 53.842273 ] } },
{ "type": "Feature", "properties": { "Name": "Bexhill", "description": "\n        <div>Code: BEX<\/div>\n        <div>Owner: Govia Thameslink Railway (Southern)<\/div>\n        <div>\n          <a href=\"https:\/\/www.doogal.co.uk\/StationMap.php?station=Bexhill\">More information<\/a>\n        <\/div>\n      " }, "geometry": { "type": "Point", "coordinates": [ 0.477017, 50.84104 ] } },
{ "type": "Feature", "properties": { "Name": "Bexley", "description": "\n        <div>Code: BXY<\/div>\n        <div>Owner: Southeastern<\/div>\n        <div>\n          <a href=\"https:\/\/www.doogal.co.uk\/StationMap.php?station=Bexley\">More information<\/a>\n        <\/div>\n      " }, "geometry": { "type": "Point", "coordinates": [ 0.147902, 51.440218 ] } },
{ "type": "Feature", "properties": { "Name": "Bexleyheath", "description": "\n        <div>Code: BXH<\/div>\n        <div>Owner: Southeastern<\/div>\n        <div>\n          <a href=\"https:\/\/www.doogal.co.uk\/StationMap.php?station=Bexleyheath\">More information<\/a>\n        <\/div>\n      " }, "geometry": { "type": "Point", "coordinates": [ 0.133735, 51.463498 ] } },
{ "type": "Feature", "properties": { "Name": "Bicester North", "description": "\n        <div>Code: BCS<\/div>\n        <div>Owner: Chiltern Railways<\/div>\n        <div>\n          <a href=\"https:\/\/www.doogal.co.uk\/StationMap.php?station=Bicester%20North\">More information<\/a>\n        <\/div>\n      " }, "geometry": { "type": "Point", "coordinates": [ -1.150384, 51.903483 ] } },
{ "type": "Feature", "properties": { "Name": "Bicester Village", "description": "\n        <div>Code: BIT<\/div>\n        <div>Owner: Chiltern Railways<\/div>\n        <div>\n          <a href=\"https:\/\/www.doogal.co.uk\/StationMap.php?station=Bicester%20Village\">More information<\/a>\n        <\/div>\n      " }, "geometry": { "type": "Point", "coordinates": [ -1.148764, 51.893024 ] } },
{ "type": "Feature", "properties": { "Name": "Bickley", "description": "\n        <div>Code: BKL<\/div>\n        <div>Owner: Southeastern<\/div>\n        <div>\n          <a href=\"https:\/\/www.doogal.co.uk\/StationMap.php?station=Bickley\">More information<\/a>\n        <\/div>\n      " }, "geometry": { "type": "Point", "coordinates": [ 0.045241, 51.400102 ] } },
{ "type": "Feature", "properties": { "Name": "Bidston", "description": "\n        <div>Code: BID<\/div>\n        <div>Owner: Merseyrail<\/div>\n        <div>\n          <a href=\"https:\/\/www.doogal.co.uk\/StationMap.php?station=Bidston\">More information<\/a>\n        <\/div>\n      " }, "geometry": { "type": "Point", "coordinates": [ -3.078561, 53.40914 ] } },
{ "type": "Feature", "properties": { "Name": "Biggleswade", "description": "\n        <div>Code: BIW<\/div>\n        <div>Owner: Govia Thameslink Railway (Great Northern)<\/div>\n        <div>\n          <a href=\"https:\/\/www.doogal.co.uk\/StationMap.php?station=Biggleswade\">More information<\/a>\n        <\/div>\n      " }, "geometry": { "type": "Point", "coordinates": [ -0.261187, 52.084679 ] } },
{ "type": "Feature", "properties": { "Name": "Bilbrook", "description": "\n        <div>Code: BBK<\/div>\n        <div>Owner: West Midlands Trains (West Midlands Railway)<\/div>\n        <div>\n          <a href=\"https:\/\/www.doogal.co.uk\/StationMap.php?station=Bilbrook\">More information<\/a>\n        <\/div>\n      " }, "geometry": { "type": "Point", "coordinates": [ -2.186088, 52.62372 ] } },
{ "type": "Feature", "properties": { "Name": "Billericay", "description": "\n        <div>Code: BIC<\/div>\n        <div>Owner: Greater Anglia<\/div>\n        <div>\n          <a href=\"https:\/\/www.doogal.co.uk\/StationMap.php?station=Billericay\">More information<\/a>\n        <\/div>\n      " }, "geometry": { "type": "Point", "coordinates": [ 0.41863, 51.628881 ] } },
{ "type": "Feature", "properties": { "Name": "Billingham", "description": "\n        <div>Code: BIL<\/div>\n        <div>Owner: Northern Trains<\/div>\n        <div>\n          <a href=\"https:\/\/www.doogal.co.uk\/StationMap.php?station=Billingham\">More information<\/a>\n        <\/div>\n      " }, "geometry": { "type": "Point", "coordinates": [ -1.27972, 54.605607 ] } },
{ "type": "Feature", "properties": { "Name": "Billingshurst", "description": "\n        <div>Code: BIG<\/div>\n        <div>Owner: Govia Thameslink Railway (Southern)<\/div>\n        <div>\n          <a href=\"https:\/\/www.doogal.co.uk\/StationMap.php?station=Billingshurst\">More information<\/a>\n        <\/div>\n      " }, "geometry": { "type": "Point", "coordinates": [ -0.450302, 51.015203 ] } },
{ "type": "Feature", "properties": { "Name": "Bingham", "description": "\n        <div>Code: BIN<\/div>\n        <div>Owner: East Midlands Railway<\/div>\n        <div>\n          <a href=\"https:\/\/www.doogal.co.uk\/StationMap.php?station=Bingham\">More information<\/a>\n        <\/div>\n      " }, "geometry": { "type": "Point", "coordinates": [ -0.951543, 52.954191 ] } },
{ "type": "Feature", "properties": { "Name": "Bingley", "description": "\n        <div>Code: BIY<\/div>\n        <div>Owner: Northern Trains<\/div>\n        <div>\n          <a href=\"https:\/\/www.doogal.co.uk\/StationMap.php?station=Bingley\">More information<\/a>\n        <\/div>\n      " }, "geometry": { "type": "Point", "coordinates": [ -1.837322, 53.848615 ] } },
{ "type": "Feature", "properties": { "Name": "Birchgrove", "description": "\n        <div>Code: BCG<\/div>\n        <div>Owner: TfW Rail<\/div>\n        <div>\n          <a href=\"https:\/\/www.doogal.co.uk\/StationMap.php?station=Birchgrove\">More information<\/a>\n        <\/div>\n      " }, "geometry": { "type": "Point", "coordinates": [ -3.201854, 51.52156 ] } },
{ "type": "Feature", "properties": { "Name": "Birchington-On-Sea", "description": "\n        <div>Code: BCH<\/div>\n        <div>Owner: Southeastern<\/div>\n        <div>\n          <a href=\"https:\/\/www.doogal.co.uk\/StationMap.php?station=Birchington-On-Sea\">More information<\/a>\n        <\/div>\n      " }, "geometry": { "type": "Point", "coordinates": [ 1.301408, 51.377489 ] } },
{ "type": "Feature", "properties": { "Name": "Birchwood", "description": "\n        <div>Code: BWD<\/div>\n        <div>Owner: Northern Trains<\/div>\n        <div>\n          <a href=\"https:\/\/www.doogal.co.uk\/StationMap.php?station=Birchwood\">More information<\/a>\n        <\/div>\n      " }, "geometry": { "type": "Point", "coordinates": [ -2.525308, 53.412721 ] } },
{ "type": "Feature", "properties": { "Name": "Birkbeck", "description": "\n        <div>Code: BIK<\/div>\n        <div>Owner: Govia Thameslink Railway (Southern)<\/div>\n        <div>\n          <a href=\"https:\/\/www.doogal.co.uk\/StationMap.php?station=Birkbeck\">More information<\/a>\n        <\/div>\n      " }, "geometry": { "type": "Point", "coordinates": [ -0.055739, 51.40389 ] } },
{ "type": "Feature", "properties": { "Name": "Birkdale", "description": "\n        <div>Code: BDL<\/div>\n        <div>Owner: Merseyrail<\/div>\n        <div>\n          <a href=\"https:\/\/www.doogal.co.uk\/StationMap.php?station=Birkdale\">More information<\/a>\n        <\/div>\n      " }, "geometry": { "type": "Point", "coordinates": [ -3.01445, 53.634053 ] } },
{ "type": "Feature", "properties": { "Name": "Birkenhead Central", "description": "\n        <div>Code: BKC<\/div>\n        <div>Owner: Merseyrail<\/div>\n        <div>\n          <a href=\"https:\/\/www.doogal.co.uk\/StationMap.php?station=Birkenhead%20Central\">More information<\/a>\n        <\/div>\n      " }, "geometry": { "type": "Point", "coordinates": [ -3.020821, 53.388317 ] } },
{ "type": "Feature", "properties": { "Name": "Birkenhead Hamilton Square", "description": "\n        <div>Code: BKQ<\/div>\n        <div>Owner: Merseyrail<\/div>\n        <div>\n          <a href=\"https:\/\/www.doogal.co.uk\/StationMap.php?station=Birkenhead%20Hamilton%20Square\">More information<\/a>\n        <\/div>\n      " }, "geometry": { "type": "Point", "coordinates": [ -3.01368, 53.394697 ] } },
{ "type": "Feature", "properties": { "Name": "Birkenhead North", "description": "\n        <div>Code: BKN<\/div>\n        <div>Owner: Merseyrail<\/div>\n        <div>\n          <a href=\"https:\/\/www.doogal.co.uk\/StationMap.php?station=Birkenhead%20North\">More information<\/a>\n        <\/div>\n      " }, "geometry": { "type": "Point", "coordinates": [ -3.057534, 53.404438 ] } },
{ "type": "Feature", "properties": { "Name": "Birkenhead Park", "description": "\n        <div>Code: BKP<\/div>\n        <div>Owner: Merseyrail<\/div>\n        <div>\n          <a href=\"https:\/\/www.doogal.co.uk\/StationMap.php?station=Birkenhead%20Park\">More information<\/a>\n        <\/div>\n      " }, "geometry": { "type": "Point", "coordinates": [ -3.039101, 53.397409 ] } },
{ "type": "Feature", "properties": { "Name": "Birmingham International", "description": "\n        <div>Code: BHI<\/div>\n        <div>Owner: Avanti West Coast<\/div>\n        <div>\n          <a href=\"https:\/\/www.doogal.co.uk\/StationMap.php?station=Birmingham%20International\">More information<\/a>\n        <\/div>\n      " }, "geometry": { "type": "Point", "coordinates": [ -1.725857, 52.450808 ] } },
{ "type": "Feature", "properties": { "Name": "Birmingham Moor Street", "description": "\n        <div>Code: BMO<\/div>\n        <div>Owner: Chiltern Railways<\/div>\n        <div>\n          <a href=\"https:\/\/www.doogal.co.uk\/StationMap.php?station=Birmingham%20Moor%20Street\">More information<\/a>\n        <\/div>\n      " }, "geometry": { "type": "Point", "coordinates": [ -1.892473, 52.479081 ] } },
{ "type": "Feature", "properties": { "Name": "Birmingham New Street", "description": "\n        <div>Code: BHM<\/div>\n        <div>Owner: Network Rail<\/div>\n        <div>\n          <a href=\"https:\/\/www.doogal.co.uk\/StationMap.php?station=Birmingham%20New%20Street\">More information<\/a>\n        <\/div>\n      " }, "geometry": { "type": "Point", "coordinates": [ -1.900206, 52.47782 ] } },
{ "type": "Feature", "properties": { "Name": "Birmingham Snow Hill", "description": "\n        <div>Code: BSW<\/div>\n        <div>Owner: West Midlands Trains (West Midlands Railway)<\/div>\n        <div>\n          <a href=\"https:\/\/www.doogal.co.uk\/StationMap.php?station=Birmingham%20Snow%20Hill\">More information<\/a>\n        <\/div>\n      " }, "geometry": { "type": "Point", "coordinates": [ -1.899089, 52.483357 ] } },
{ "type": "Feature", "properties": { "Name": "Bishop Auckland", "description": "\n        <div>Code: BIA<\/div>\n        <div>Owner: Northern Trains<\/div>\n        <div>\n          <a href=\"https:\/\/www.doogal.co.uk\/StationMap.php?station=Bishop%20Auckland\">More information<\/a>\n        <\/div>\n      " }, "geometry": { "type": "Point", "coordinates": [ -1.677715, 54.657196 ] } },
{ "type": "Feature", "properties": { "Name": "Bishopbriggs", "description": "\n        <div>Code: BBG<\/div>\n        <div>Owner: ScotRail<\/div>\n        <div>\n          <a href=\"https:\/\/www.doogal.co.uk\/StationMap.php?station=Bishopbriggs\">More information<\/a>\n        <\/div>\n      " }, "geometry": { "type": "Point", "coordinates": [ -4.224916, 55.903883 ] } },
{ "type": "Feature", "properties": { "Name": "Bishops Stortford", "description": "\n        <div>Code: BIS<\/div>\n        <div>Owner: Greater Anglia<\/div>\n        <div>\n          <a href=\"https:\/\/www.doogal.co.uk\/StationMap.php?station=Bishops%20Stortford\">More information<\/a>\n        <\/div>\n      " },