{"type":"FeatureCollection","features":[{"type":"Feature","properties":{"name":"Harlequin","address1":"27 Arlington Way","address2":"London","address3":"Finsbury","borough_name":"Islington","borough_code":"E09000019","ward_2018_name":"Clerkenwell","ward_2018_code":"E05000370","longitude":"-0.10610658511907134","latitude":"51.53011014612802","easting":"531466.9643811077","northing":"182943.92322504142","runtime":"02/28/2021"},"geometry":{"type":"Point","coordinates":[-0.106107,51.53011]}},{"type":"Feature","properties":{"name":"Peasant","address1":"240 St John Street","address2":"London","address3":"Finsbury","borough_name":"Islington","borough_code":"E09000019","ward_2018_name":"Clerkenwell","ward_2018_code":"E05000370","longitude":"-0.1032631025020614","latitude":"51.52602647776972","easting":"531675.9643233488","northing":"182494.92334804218","runtime":"02/28/2021"},"geometry":{"type":"Point","coordinates":[-0.103263,51.526026]}},{"type":"Feature","properties":{"name":"Blues Kitchen","address1":"134 Curtain Road","address2":"London","address3":"Shoreditch","borough_name":"Hackney","borough_code":"E09000012","ward_2018_name":"Hoxton East & Shoreditch","ward_2018_code":"E05009377","longitude":"-0.07997231300011513","latitude":"51.52656454334939","easting":"533289.9638825976","northing":"182596.92331800488","runtime":"02/28/2021"},"geometry":{"type":"Point","coordinates":[-0.079972,51.526565]}},{"type":"Feature","properties":{"name":"Caraway Lounge","address1":"290 North Street","address2":"Romford","borough_name":"Havering","borough_code":"E09000016","ward_2018_name":"Brooklands","ward_2018_code":"E05000306","longitude":"0.17274672543277814","latitude":"51.585186745646936","easting":"550625.9591717031","northing":"189605.9214140277","runtime":"02/28/2021"},"geometry":{"type":"Point","coordinates":[0.172747,51.585187]}},{"type":"Feature","properties":{"name":"Rye","address1":"31 Peckham Rye","address2":"Peckham","address3":"London","borough_name":"Southwark","borough_code":"E09000028","ward_2018_name":"Rye Lane","ward_2018_code":"E05011113","longitude":"-0.06539738721431776","latitude":"51.464652411797815","easting":"534482.9635583641","northing":"175738.92517991067","runtime":"02/28/2021"},"geometry":{"type":"Point","coordinates":[-0.065397,51.464652]}},{"type":"Feature","properties":{"name":"Eleven","address1":"5 Fernlea Road","address2":"Balham","borough_name":"Wandsworth","borough_code":"E09000032","ward_2018_name":"Balham","ward_2018_code":"E05000610","longitude":"-0.14826945321323656","latitude":"51.44285263704494","easting":"528787.965107328","northing":"173165.92588280002","runtime":"02/28/2021"},"geometry":{"type":"Point","coordinates":[-0.148269,51.442853]}},{"type":"Feature","properties":{"name":"Royal","address1":"Boston Road","address2":"Hanwell","borough_name":"Ealing","borough_code":"E09000009","ward_2018_name":"Northfield","ward_2018_code":"E05000182","longitude":"-0.32656310813794753","latitude":"51.49829164143888","easting":"516256.96851430944","northing":"179032.9242864498","runtime":"02/28/2021"},"geometry":{"type":"Point","coordinates":[-0.326563,51.498292]}},{"type":"Feature","properties":{"name":"Bitter End Bar","address1":"139 Masons Hill","address2":"Bromley","borough_name":"Bromley","borough_code":"E09000006","ward_2018_name":"Bromley Town","ward_2018_code":"E05000109","longitude":"0.02524008403156215","latitude":"51.39620557790606","easting":"540988.9617902413","northing":"168297.9272050094","runtime":"02/28/2021"},"geometry":{"type":"Point","coordinates":[0.02524,51.396206]}},{"type":"Feature","properties":{"name":"Hope","address1":"3 Melon Road","address2":"Peckham","address3":"London","borough_name":"Southwark","borough_code":"E09000028","ward_2018_name":"Peckham","ward_2018_code":"E05011110","longitude":"-0.07103817649275285","latitude":"51.473594396262285","easting":"534064.9636725195","northing":"176722.92491378094","runtime":"02/28/2021"},"geometry":{"type":"Point","coordinates":[-0.071038,51.473594]}},{"type":"Feature","properties":{"name":"Blues Kitchen","address1":"40 Acre Lane","address2":"Brixton","borough_name":"Lambeth","borough_code":"E09000022","ward_2018_name":"Ferndale","ward_2018_code":"E05000421","longitude":"-0.12041312354054397","latitude":"51.460313880106504","easting":"530673.9645917199","northing":"175156.9253405594","runtime":"02/28/2021"},"geometry":{"type":"Point","coordinates":[-0.120413,51.460314]}},{"type":"Feature","properties":{"name":"Richmal Crompton","address1":"23 Westmoreland Place","address2":"Bromley","borough_name":"Bromley","borough_code":"E09000006","ward_2018_name":"Bromley Town","ward_2018_code":"E05000109","longitude":"0.01629690684301556","latitude":"51.39976786491423","easting":"540355.9619632727","northing":"168676.92709987512","runtime":"02/28/2021"},"geometry":{"type":"Point","coordinates":[0.016297,51.399768]}},{"type":"Feature","properties":{"name":"Partridge","address1":"194 High Street","address2":"Bromley","borough_name":"Bromley","borough_code":"E09000006","ward_2018_name":"Bromley Town","ward_2018_code":"E05000109","longitude":"0.014278857896156018","latitude":"51.40520720523722","easting":"540198.9620066645","northing":"169277.92693599762","runtime":"02/28/2021"},"geometry":{"type":"Point","coordinates":[0.014279,51.405207]}},{"type":"Feature","properties":{"name":"Bar Sport","address1":"196-198 High Street","address2":"Bromley","borough_name":"Bromley","borough_code":"E09000006","ward_2018_name":"Bromley Town","ward_2018_code":"E05000109","longitude":"0.014278857896156018","latitude":"51.40520720523722","easting":"540198.9620066645","northing":"169277.92693599762","runtime":"02/28/2021"},"geometry":{"type":"Point","coordinates":[0.014279,51.405207]}},{"type":"Feature","properties":{"name":"Havet","address1":"195-199 High Street","address2":"Bromley","borough_name":"Bromley","borough_code":"E09000006","ward_2018_name":"Bromley Town","ward_2018_code":"E05000109","longitude":"0.013886947222984123","latitude":"51.406104225009244","easting":"540168.962014911","northing":"169376.9269091183","runtime":"02/28/2021"},"geometry":{"type":"Point","coordinates":[0.013887,51.406104]}},{"type":"Feature","properties":{"name":"Greyhound","address1":"205 High Street","address2":"Bromley","borough_name":"Bromley","borough_code":"E09000006","ward_2018_name":"Bromley Town","ward_2018_code":"E05000109","longitude":"0.01314047451553142","latitude":"51.40645877028565","easting":"540115.962029289","northing":"169414.92689886055","runtime":"02/28/2021"},"geometry":{"type":"Point","coordinates":[0.01314,51.406459]}},{"type":"Feature","properties":{"name":"Star & Garter","address1":"227 High Street","address2":"Bromley","borough_name":"Bromley","borough_code":"E09000006","ward_2018_name":"Bromley Town","ward_2018_code":"E05000109","longitude":"0.01247096090046672","latitude":"51.406928896364995","easting":"540067.9620423124","northing":"169465.92688507057","runtime":"02/28/2021"},"geometry":{"type":"Point","coordinates":[0.012471,51.406929]}},{"type":"Feature","properties":{"name":"Swan & Mitre","address1":"260-262 High Street","address2":"Bromley","borough_name":"Bromley","borough_code":"E09000006","ward_2018_name":"Bromley Town","ward_2018_code":"E05000109","longitude":"0.01199366693556537","latitude":"51.40686514494168","easting":"540034.9620512243","northing":"169457.92688729567","runtime":"02/28/2021"},"geometry":{"type":"Point","coordinates":[0.011994,51.406865]}},{"type":"Feature","properties":{"name":"Metropolis","address1":"256A High Street","address2":"Bromley","borough_name":"Bromley","borough_code":"E09000006","ward_2018_name":"Bromley Town","ward_2018_code":"E05000109","longitude":"0.01199366693556537","latitude":"51.40686514494168","easting":"540034.9620512243","northing":"169457.92688729567","runtime":"02/28/2021"},"geometry":{"type":"Point","coordinates":[0.011994,51.406865]}},{"type":"Feature","properties":{"name":"Barrel & Horn","address1":"204-206 High Street","address2":"Bromley","borough_name":"Bromley","borough_code":"E09000006","ward_2018_name":"Bromley Town","ward_2018_code":"E05000109","longitude":"0.013392133092803118","latitude":"51.4059688377614","easting":"540134.9620240941","northing":"169360.9269135155","runtime":"02/28/2021"},"geometry":{"type":"Point","coordinates":[0.013392,51.405969]}},{"type":"Feature","properties":{"name":"O'Neill's","address1":"27-29 East St","address2":"Bromley","borough_name":"Bromley","borough_code":"E09000006","ward_2018_name":"Bromley Town","ward_2018_code":"E05000109","longitude":"0.015668645357416435","latitude":"51.40673008533401","easting":"540290.9619818357","northing":"169449.92688927636","runtime":"02/28/2021"},"geometry":{"type":"Point","coordinates":[0.015669,51.40673]}},{"type":"Feature","properties":{"name":"Railway Tavern","address1":"45 East Street","address2":"Bromley","borough_name":"Bromley","borough_code":"E09000006","ward_2018_name":"Bromley Town","ward_2018_code":"E05000109","longitude":"0.016215940017572445","latitude":"51.40740412928509","easting":"540326.9619720391","northing":"169525.92686872225","runtime":"02/28/2021"},"geometry":{"type":"Point","coordinates":[0.016216,51.407404]}},{"type":"Feature","properties":{"name":"Belgo","address1":"242 The Glades","address2":"Bromley","borough_name":"Bromley","borough_code":"E09000006","ward_2018_name":"Bickley","ward_2018_code":"E05000106","longitude":"0.03563680755826283","latitude":"51.403732273542275","easting":"541688.9615985536","northing":"169154.92697259743","runtime":"02/28/2021"},"geometry":{"type":"Point","coordinates":[0.035637,51.403732]}},{"type":"Feature","properties":{"name":"Lord Holmesdale","address1":"184 Homesdale Road","address2":"Bromley","borough_name":"Bromley","borough_code":"E09000006","ward_2018_name":"Bickley","ward_2018_code":"E05000106","longitude":"0.03498042062974891","latitude":"51.399957720379106","easting":"541654.9616079752","northing":"168733.92708675726","runtime":"02/28/2021"},"geometry":{"type":"Point","coordinates":[0.03498,51.399958]}},{"type":"Feature","properties":{"name":"Oak","address1":"206 Widmore Road","address2":"Bromley","borough_name":"Bromley","borough_code":"E09000006","ward_2018_name":"Bickley","ward_2018_code":"E05000106","longitude":"0.03410549519427325","latitude":"51.405836175942135","easting":"541575.9616293268","northing":"169385.92691005196","runtime":"02/28/2021"},"geometry":{"type":"Point","coordinates":[0.034105,51.405836]}},{"type":"Feature","properties":{"name":"Crown & Anchor","address1":"19 Park Road","address2":"Bromley","borough_name":"Bromley","borough_code":"E09000006","ward_2018_name":"Plaistow and Sundridge","ward_2018_code":"E05000125","longitude":"0.02163998300315564","latitude":"51.40812908453971","easting":"540701.9618690239","northing":"169616.92684514634","runtime":"02/28/2021"},"geometry":{"type":"Point","coordinates":[0.02164,51.408129]}},{"type":"Feature","properties":{"name":"Freelands Tavern","address1":"31 Freelands Road","address2":"Bromley","borough_name":"Bromley","borough_code":"E09000006","ward_2018_name":"Plaistow and Sundridge","ward_2018_code":"E05000125","longitude":"0.024611251062558136","latitude":"51.41061380480179","easting":"540900.9618137386","northing":"169898.92676901072","runtime":"02/28/2021"},"geometry":{"type":"Point","coordinates":[0.024611,51.410614]}},{"type":"Feature","properties":{"name":"White Horse","address1":"64 Palace Road","address2":"Bromley","borough_name":"Bromley","borough_code":"E09000006","ward_2018_name":"Plaistow and Sundridge","ward_2018_code":"E05000125","longitude":"0.020894229954613586","latitude":"51.408825391898354","easting":"540647.9618839149","northing":"169692.9268243251","runtime":"02/28/2021"},"geometry":{"type":"Point","coordinates":[0.020894,51.408825]}},{"type":"Feature","properties":{"name":"Anglesey Arms","address1":"90 Palace Road","address2":"Bromley","borough_name":"Bromley","borough_code":"E09000006","ward_2018_name":"Plaistow and Sundridge","ward_2018_code":"E05000125","longitude":"0.020894229954613586","latitude":"51.408825391898354","easting":"540647.9618839149","northing":"169692.9268243251","runtime":"02/28/2021"},"geometry":{"type":"Point","coordinates":[0.020894,51.408825]}},{"type":"Feature","properties":{"name":"Red Lion","address1":"10 North Road","address2":"Bromley","borough_name":"Bromley","borough_code":"E09000006","ward_2018_name":"Plaistow and Sundridge","ward_2018_code":"E05000125","longitude":"0.021879749219563243","latitude":"51.40997747824189","easting":"540712.9618656446","northing":"169822.92678923864","runtime":"02/28/2021"},"geometry":{"type":"Point","coordinates":[0.02188,51.409977]}},{"type":"Feature","properties":{"name":"Hop & Rye","address1":"54 London Road","address2":"Bromley","borough_name":"Bromley","borough_code":"E09000006","ward_2018_name":"Plaistow and Sundridge","ward_2018_code":"E05000125","longitude":"0.009769752545266725","latitude":"51.411561599340594","easting":"539865.9620962","northing":"169975.926747425","runtime":"02/28/2021"},"geometry":{"type":"Point","coordinates":[0.00977,51.411562]}},{"type":"Feature","properties":{"name":"Prince Frederick","address1":"31 Nichol Lane","address2":"Bromley","borough_name":"Bromley","borough_code":"E09000006","ward_2018_name":"Plaistow and Sundridge","ward_2018_code":"E05000125","longitude":"0.01930155689445569","latitude":"51.415750381394155","easting":"540515.9619176844","northing":"170459.92661639297","runtime":"02/28/2021"},"geometry":{"type":"Point","coordinates":[0.019302,51.41575]}},{"type":"Feature","properties":{"name":"Bonnie's","address1":"28-30 Bromley Hill","address2":"Bromley","address3":"Downham","borough_name":"Lewisham","borough_code":"E09000023","ward_2018_name":"Downham","ward_2018_code":"E05000442","longitude":"-0.0016269612308863815","latitude":"51.42094725762445","easting":"539044.9623188099","northing":"170997.92646999215","runtime":"02/28/2021"},"geometry":{"type":"Point","coordinates":[-0.001627,51.420947]}},{"type":"Feature","properties":{"name":"Downham Tavern","address1":"419 Downham Way","address2":"Grove Park","address3":"Downham","borough_name":"Lewisham","borough_code":"E09000023","ward_2018_name":"Downham","ward_2018_code":"E05000442","longitude":"0.013136172476824224","latitude":"51.427628268013926","easting":"540050.9620472365","northing":"171768.92625865416","runtime":"02/28/2021"},"geometry":{"type":"Point","coordinates":[0.013136,51.427628]}},{"type":"Feature","properties":{"name":"Shortlands Tavern","address1":"5 Station Road","address2":"Bromley","borough_name":"Bromley","borough_code":"E09000006","ward_2018_name":"Bromley Town","ward_2018_code":"E05000109","longitude":"0.0042020939664687154","latitude":"51.40493023909374","easting":"539498.962196374","northing":"169227.9269504291","runtime":"02/28/2021"},"geometry":{"type":"Point","coordinates":[0.004202,51.40493]}},{"type":"Feature","properties":{"name":"Greyhound","address1":"Commonside","address2":"Keston","borough_name":"Bromley","borough_code":"E09000006","ward_2018_name":"Bromley Common and Keston","ward_2018_code":"E05000108","longitude":"0.02858458489082019","latitude":"51.36354958268831","easting":"541321.9617013289","northing":"164672.92819015804","runtime":"02/28/2021"},"geometry":{"type":"Point","coordinates":[0.028585,51.36355]}},{"type":"Feature","properties":{"name":"Fox Inn","address1":"Heathfield Road","address2":"Keston","borough_name":"Bromley","borough_code":"E09000006","ward_2018_name":"Bromley Common and Keston","ward_2018_code":"E05000108","longitude":"0.0273100414787619","latitude":"51.36135943642731","easting":"541239.9617230879","northing":"164426.92825671931","runtime":"02/28/2021"},"geometry":{"type":"Point","coordinates":[0.02731,51.361359]}},{"type":"Feature","properties":{"name":"Crown Inn","address1":"Leaves Green Road","address2":"Keston","borough_name":"Bromley","borough_code":"E09000006","ward_2018_name":"Darwin","ward_2018_code":"E05000117","longitude":"0.030205744068063423","latitude":"51.34203763494014","easting":"541500.9616495504","northing":"162283.92883865238","runtime":"02/28/2021"},"geometry":{"type":"Point","coordinates":[0.030206,51.342038]}},{"type":"Feature","properties":{"name":"Kings Arms","address1":"Leaves Green Rd","address2":"Keston","borough_name":"Bromley","borough_code":"E09000006","ward_2018_name":"Darwin","ward_2018_code":"E05000117","longitude":"0.029645456210684304","latitude":"51.33520347685677","easting":"541482.9616530574","northing":"161522.9290473367","runtime":"02/28/2021"},"geometry":{"type":"Point","coordinates":[0.029645,51.335203]}},{"type":"Feature","properties":{"name":"New Inn","address1":"59 Station Approach","address2":"Hayes","borough_name":"Bromley","borough_code":"E09000006","ward_2018_name":"Hayes and Coney Hall","ward_2018_code":"E05000119","longitude":"0.011302069882955979","latitude":"51.375996372109775","easting":"540080.9620343072","northing":"166023.9278232031","runtime":"02/28/2021"},"geometry":{"type":"Point","coordinates":[0.011302,51.375996]}},{"type":"Feature","properties":{"name":"Real Ale Way","address1":"55 Station Approach, Hayes","address2":"Hayes","borough_name":"Bromley","borough_code":"E09000006","ward_2018_name":"Hayes and Coney Hall","ward_2018_code":"E05000119","longitude":"0.011535146289121225","latitude":"51.3763970396319","easting":"540095.9620303538","northing":"166068.92781085725","runtime":"02/28/2021"},"geometry":{"type":"Point","coordinates":[0.011535,51.376397]}},{"type":"Feature","properties":{"name":"Pie & Pint Bar","address1":"6 Bourne Way","address2":"Hayes","borough_name":"Bromley","borough_code":"E09000006","ward_2018_name":"Hayes and Coney Hall","ward_2018_code":"E05000119","longitude":"0.006895637206408839","latitude":"51.37610784270458","easting":"539773.9621186703","northing":"166027.92782220233","runtime":"02/28/2021"},"geometry":{"type":"Point","coordinates":[0.006896,51.376108]}},{"type":"Feature","properties":{"name":"George","address1":"29 Hayes Street","address2":"Hayes","borough_name":"Bromley","borough_code":"E09000006","ward_2018_name":"Hayes and Coney Hall","ward_2018_code":"E05000119","longitude":"0.01831303028805495","latitude":"51.37989558609414","easting":"540556.9619060045","northing":"166470.92770095915","runtime":"02/28/2021"},"geometry":{"type":"Point","coordinates":[0.018313,51.379896]}},{"type":"Feature","properties":{"name":"Crooked Billet","address1":"286 Southborough Lane","address2":"Bromley","borough_name":"Bromley","borough_code":"E09000006","ward_2018_name":"Bromley Common and Keston","ward_2018_code":"E05000108","longitude":"0.05681240200470426","latitude":"51.3898737690461","easting":"543204.9611881652","northing":"167654.92737999244","runtime":"02/28/2021"},"geometry":{"type":"Point","coordinates":[0.056812,51.389874]}},{"type":"Feature","properties":{"name":"Chequers","address1":"177 Southborough Lane","address2":"Bromley","borough_name":"Bromley","borough_code":"E09000006","ward_2018_name":"Bickley","ward_2018_code":"E05000106","longitude":"0.04518699261467155","latitude":"51.39025701559228","easting":"542394.9614080896","northing":"167674.92737407517","runtime":"02/28/2021"},"geometry":{"type":"Point","coordinates":[0.045187,51.390257]}},{"type":"Feature","properties":{"name":"Two Doves","address1":"37 Oakley Road Kent","address2":"Bromley Common","address3":"Bromley","borough_name":"Bromley","borough_code":"E09000006","ward_2018_name":"Bromley Common and Keston","ward_2018_code":"E05000108","longitude":"0.03966160483073325","latitude":"51.372323021050235","easting":"542065.9614975268","northing":"165669.92791884497","runtime":"02/28/2021"},"geometry":{"type":"Point","coordinates":[0.039662,51.372323]}},{"type":"Feature","properties":{"name":"Bird in Hand","address1":"62 Gravel Road","address2":"Bromley Common","address3":"Bromley","borough_name":"Bromley","borough_code":"E09000006","ward_2018_name":"Bromley Common and Keston","ward_2018_code":"E05000108","longitude":"0.04266991327119019","latitude":"51.37438391199831","easting":"542268.9614419767","northing":"165904.92785541067","runtime":"02/28/2021"},"geometry":{"type":"Point","coordinates":[0.04267,51.374384]}},{"type":"Feature","properties":{"name":"Bricklayers Arms","address1":"141-143 Masons Hill","address2":"Bromley","borough_name":"Bromley","borough_code":"E09000006","ward_2018_name":"Bromley Town","ward_2018_code":"E05000109","longitude":"0.02562365664064877","latitude":"51.39577630237602","easting":"541016.9617825671","northing":"168250.92721788125","runtime":"02/28/2021"},"geometry":{"type":"Point","coordinates":[0.025624,51.395776]}},{"type":"Feature","properties":{"name":"Crown of Bromley","address1":"14 Masons Hill","address2":"Bromley","borough_name":"Bromley","borough_code":"E09000006","ward_2018_name":"Bromley Town","ward_2018_code":"E05000109","longitude":"0.025373215442196985","latitude":"51.395313014573404","easting":"541000.9617869654","northing":"168198.92723206017","runtime":"02/28/2021"},"geometry":{"type":"Point","coordinates":[0.025373,51.395313]}},{"type":"Feature","properties":{"name":"Chatterton Arms","address1":"41 Chatterton Road","address2":"Bromley Common","address3":"Bromley","borough_name":"Bromley","borough_code":"E09000006","ward_2018_name":"Bromley Common and Keston","ward_2018_code":"E05000108","longitude":"0.035042457532591345","latitude":"51.39292445233488","easting":"541680.9616012119","northing":"167951.9272995782","runtime":"02/28/2021"},"geometry":{"type":"Point","coordinates":[0.035042,51.392924]}},{"type":"Feature","properties":{"name":"Crown","address1":"155 Bromley Common","address2":"Bromley Common","address3":"Bromley","borough_name":"Bromley","borough_code":"E09000006","ward_2018_name":"Bromley Common and Keston","ward_2018_code":"E05000108","longitude":"0.034588648976039756","latitude":"51.3904683602918","easting":"541656.9616071827","northing":"167677.92737405386","runtime":"02/28/2021"},"geometry":{"type":"Point","coordinates":[0.034589,51.390468]}},{"type":"Feature","properties":{"name":"George Inn","address1":"111 High Street","address2":"Beckenham","borough_name":"Bromley","borough_code":"E09000006","ward_2018_name":"Copers Cope","ward_2018_code":"E05000113","longitude":"-0.027685610642304855","latitude":"51.406999824110976","easting":"537274.9627985482","northing":"169397.92690579593","runtime":"02/28/2021"},"geometry":{"type":"Point","coordinates":[-0.027686,51.407]}},{"type":"Feature","properties":{"name":"White Horse","address1":"215 High Street","address2":"Beckenham","borough_name":"Bromley","borough_code":"E09000006","ward_2018_name":"Copers Cope","ward_2018_code":"E05000113","longitude":"-0.030198762080711615","latitude":"51.40640357680917","easting":"537101.962845565","northing":"169326.92692483647","runtime":"02/28/2021"},"geometry":{"type":"Point","coordinates":[-0.030199,51.406404]}},{"type":"Feature","properties":{"name":"Kelsey House","address1":"75 High Street","address2":"Beckenham","borough_name":"Bromley","borough_code":"E09000006","ward_2018_name":"Copers Cope","ward_2018_code":"E05000113","longitude":"-0.0259529387030749","latitude":"51.40750124617986","easting":"537393.9627661249","northing":"169456.92689000187","runtime":"02/28/2021"},"geometry":{"type":"Point","coordinates":[-0.025953,51.407501]}},{"type":"Feature","properties":{"name":"O'Neill's","address1":"9 High Street","address2":"Beckenham","borough_name":"Bromley","borough_code":"E09000006","ward_2018_name":"Copers Cope","ward_2018_code":"E05000113","longitude":"-0.02512812922263777","latitude":"51.410625880501286","easting":"537441.9627527191","northing":"169805.92679539043","runtime":"02/28/2021"},"geometry":{"type":"Point","coordinates":[-0.025128,51.410626]}},{"type":"Feature","properties":{"name":"Patrick's Bar","address1":"5 High Street","address2":"Beckenham","borough_name":"Bromley","borough_code":"E09000006","ward_2018_name":"Copers Cope","ward_2018_code":"E05000113","longitude":"-0.02512812922263777","latitude":"51.410625880501286","easting":"537441.9627527191","northing":"169805.92679539043","runtime":"02/28/2021"},"geometry":{"type":"Point","coordinates":[-0.025128,51.410626]}},{"type":"Feature","properties":{"name":"Bricklayers Arms","address1":"237 High Street","address2":"Beckenham","borough_name":"Bromley","borough_code":"E09000006","ward_2018_name":"Copers Cope","ward_2018_code":"E05000113","longitude":"-0.031799129009226434","latitude":"51.40663728863686","easting":"536989.9628758281","northing":"169349.92691854795","runtime":"02/28/2021"},"geometry":{"type":"Point","coordinates":[-0.031799,51.406637]}},{"type":"Feature","properties":{"name":"Slug & Lettuce","address1":"150-156 High Street","address2":"Beckenham","borough_name":"Bromley","borough_code":"E09000006","ward_2018_name":"Copers Cope","ward_2018_code":"E05000113","longitude":"-0.02706324096020606","latitude":"51.40776274230457","easting":"537315.9627871782","northing":"169483.92688265222","runtime":"02/28/2021"},"geometry":{"type":"Point","coordinates":[-0.027063,51.407763]}},{"type":"Feature","properties":{"name":"Eden Park","address1":"422 Upper Elmers End Road","address2":"Eden Park","address3":"Beckenham","borough_name":"Bromley","borough_code":"E09000006","ward_2018_name":"Kelsey and Eden Park","ward_2018_code":"E05000120","longitude":"-0.02692129238027865","latitude":"51.38967590709043","easting":"537379.962772285","northing":"167472.92742850096","runtime":"02/28/2021"},"geometry":{"type":"Point","coordinates":[-0.026921,51.389676]}},{"type":"Feature","properties":{"name":"Coach & Horses","address1":"Burnhill Road","address2":"Beckenham","borough_name":"Bromley","borough_code":"E09000006","ward_2018_name":"Kelsey and Eden Park","ward_2018_code":"E05000120","longitude":"-0.026324770058053094","latitude":"51.40621252852088","easting":"537371.9627725607","northing":"169312.9269287624","runtime":"02/28/2021"},"geometry":{"type":"Point","coordinates":[-0.026325,51.406213]}},{"type":"Feature","properties":{"name":"Club Langley","address1":"2 Hawksbrook Lane","address2":"Eden Park","address3":"Beckenham","borough_name":"Bromley","borough_code":"E09000006","ward_2018_name":"Kelsey and Eden Park","ward_2018_code":"E05000120","longitude":"-0.0224837815280232","latitude":"51.38858501778888","easting":"537691.9626868007","northing":"167359.92745895177","runtime":"02/28/2021"},"geometry":{"type":"Point","coordinates":[-0.022484,51.388585]}},{"type":"Feature","properties":{"name":"Elm Tree","address1":"116 Croydon Road","address2":"Elmers End","address3":"Beckenham","borough_name":"Bromley","borough_code":"E09000006","ward_2018_name":"Clock House","ward_2018_code":"E05000112","longitude":"-0.045117565792594204","latitude":"51.39879358075511","easting":"536086.963122767","northing":"168452.9271614587","runtime":"02/28/2021"},"geometry":{"type":"Point","coordinates":[-0.045118,51.398794]}},{"type":"Feature","properties":{"name":"Chancery","address1":"90 Bromley Road","address2":"Beckenham","borough_name":"Bromley","borough_code":"E09000006","ward_2018_name":"Copers Cope","ward_2018_code":"E05000113","longitude":"-0.01799787022787383","latitude":"51.40691739600975","easting":"537948.9626160188","northing":"169406.92690384004","runtime":"02/28/2021"},"geometry":{"type":"Point","coordinates":[-0.017998,51.406917]}},{"type":"Feature","properties":{"name":"Jolly Woodman","address1":"9 Chancery Lane","address2":"Beckenham","borough_name":"Bromley","borough_code":"E09000006","ward_2018_name":"Copers Cope","ward_2018_code":"E05000113","longitude":"-0.018644059975706166","latitude":"51.40660457390008","easting":"537904.9626281221","northing":"169370.92691348615","runtime":"02/28/2021"},"geometry":{"type":"Point","coordinates":[-0.018644,51.406605]}},{"type":"Feature","properties":{"name":"Railway Hotel","address1":"Red Lodge Road,","address2":"West Wickham","borough_name":"Bromley","borough_code":"E09000006","ward_2018_name":"West Wickham","ward_2018_code":"E05000127","longitude":"-0.01314358773494711","latitude":"51.380225967020245","easting":"538366.9625014238","northing":"166447.92770747677","runtime":"02/28/2021"},"geometry":{"type":"Point","coordinates":[-0.013144,51.380226]}},{"type":"Feature","properties":{"name":"Wheatsheaf","address1":"135 High Street","address2":"West Wickham","borough_name":"Bromley","borough_code":"E09000006","ward_2018_name":"West Wickham","ward_2018_code":"E05000127","longitude":"-0.02110791891813977","latitude":"51.37681755700567","easting":"537822.9626484634","northing":"166053.92781471665","runtime":"02/28/2021"},"geometry":{"type":"Point","coordinates":[-0.021108,51.376818]}},{"type":"Feature","properties":{"name":"Swan","address1":"2-4 High Street","address2":"West Wickham","borough_name":"Bromley","borough_code":"E09000006","ward_2018_name":"West Wickham","ward_2018_code":"E05000127","longitude":"-0.01612224486424008","latitude":"51.37613983114342","easting":"538171.9625538717","northing":"165987.9278323517","runtime":"02/28/2021"},"geometry":{"type":"Point","coordinates":[-0.016122,51.37614]}},{"type":"Feature","properties":{"name":"Coney","address1":"35 Croydon Road","address2":"Coney Hall","borough_name":"Bromley","borough_code":"E09000006","ward_2018_name":"Hayes and Coney Hall","ward_2018_code":"E05000119","longitude":"0.002026639713991297","latitude":"51.37022001407329","easting":"539452.9622075327","northing":"165363.9280026002","runtime":"02/28/2021"},"geometry":{"type":"Point","coordinates":[0.002027,51.37022]}},{"type":"Feature","properties":{"name":"Sovereign of the Seas","address1":"109-111 Queensway","address2":"Petts Wood","address3":"Orpington","borough_name":"Bromley","borough_code":"E09000006","ward_2018_name":"Petts Wood and Knoll","ward_2018_code":"E05000124","longitude":"0.07184494736814034","latitude":"51.38951006529308","easting":"544251.9609045157","northing":"167643.9273823005","runtime":"02/28/2021"},"geometry":{"type":"Point","coordinates":[0.071845,51.38951]}},{"type":"Feature","properties":{"name":"One Inn The Wood","address1":"209 Petts Wood Road","address2":"Petts Wood","address3":"Orpington","borough_name":"Bromley","borough_code":"E09000006","ward_2018_name":"Petts Wood and Knoll","ward_2018_code":"E05000124","longitude":"0.07394064784956392","latitude":"51.39008449867107","easting":"544395.9608655522","northing":"167711.92736341112","runtime":"02/28/2021"},"geometry":{"type":"Point","coordinates":[0.073941,51.390084]}},{"type":"Feature","properties":{"name":"Daylight Inn","address1":"Station Square","address2":"Petts Wood","address3":"Orpington","borough_name":"Bromley","borough_code":"E09000006","ward_2018_name":"Petts Wood and Knoll","ward_2018_code":"E05000124","longitude":"0.07518570590271778","latitude":"51.389010303684465","easting":"544485.9608414008","northing":"167594.92739494215","runtime":"02/28/2021"},"geometry":{"type":"Point","coordinates":[0.075186,51.38901]}},{"type":"Feature","properties":{"name":"Bull Inn","address1":"Main Road","address2":"St Paul's Cray","address3":"Orpington","borough_name":"Bromley","borough_code":"E09000006","ward_2018_name":"Cray Valley East","ward_2018_code":"E05000114","longitude":"0.11771505149382205","latitude":"51.40390511796748","easting":"547396.9600475974","northing":"169335.9269221283","runtime":"02/28/2021"},"geometry":{"type":"Point","coordinates":[0.117715,51.403905]}},{"type":"Feature","properties":{"name":"White Swan","address1":"21 Kent Road","address2":"St Mary Cray","address3":"Orpington","borough_name":"Bromley","borough_code":"E09000006","ward_2018_name":"Cray Valley East","ward_2018_code":"E05000114","longitude":"0.11236363523981362","latitude":"51.38636709749852","easting":"547080.9601338664","northing":"167374.9274561362","runtime":"02/28/2021"},"geometry":{"type":"Point","coordinates":[0.112364,51.386367]}},{"type":"Feature","properties":{"name":"Beech Tree","address1":"75 Wellington Road","address2":"St Mary Cray","address3":"Orpington","borough_name":"Bromley","borough_code":"E09000006","ward_2018_name":"Cray Valley East","ward_2018_code":"E05000114","longitude":"0.11124203740487791","latitude":"51.38479564386403","easting":"547007.9601533647","northing":"167197.9275041764","runtime":"02/28/2021"},"geometry":{"type":"Point","coordinates":[0.111242,51.384796]}},{"type":"Feature","properties":{"name":"Cricketers","address1":"93 Chislehurst Road","address2":"Orpington","borough_name":"Bromley","borough_code":"E09000006","ward_2018_name":"Petts Wood and Knoll","ward_2018_code":"E05000124","longitude":"0.10042458336762178","latitude":"51.38145618286126","easting":"546265.960355842","northing":"166804.9276104936","runtime":"02/28/2021"},"geometry":{"type":"Point","coordinates":[0.100425,51.381456]}},{"type":"Feature","properties":{"name":"White Hart","address1":"106 High St","address2":"Orpington","borough_name":"Bromley","borough_code":"E09000006","ward_2018_name":"Petts Wood and Knoll","ward_2018_code":"E05000124","longitude":"0.10250647033960959","latitude":"51.37953032628271","easting":"546416.9603154903","northing":"166594.92766752915","runtime":"02/28/2021"},"geometry":{"type":"Point","coordinates":[0.102506,51.37953]}},{"type":"Feature","properties":{"name":"Harvest Moon","address1":"141-143 High Street","address2":"Orpington","borough_name":"Bromley","borough_code":"E09000006","ward_2018_name":"Orpington","ward_2018_code":"E05000122","longitude":"0.10140881229766636","latitude":"51.377841420126096","easting":"546345.9603354549","northing":"166404.92771931138","runtime":"02/28/2021"},"geometry":{"type":"Point","coordinates":[0.101409,51.377841]}},{"type":"Feature","properties":{"name":"Maxwell","address1":"Station Road","address2":"Orpington","borough_name":"Bromley","borough_code":"E09000006","ward_2018_name":"Orpington","ward_2018_code":"E05000122","longitude":"0.09464302229509647","latitude":"51.37253999158113","easting":"545891.960458555","northing":"165801.92788332445","runtime":"02/28/2021"},"geometry":{"type":"Point","coordinates":[0.094643,51.37254]}},{"type":"Feature","properties":{"name":"Royal Oak","address1":"High Street","address2":"Green St Green","address3":"Orpington","borough_name":"Bromley","borough_code":"E09000006","ward_2018_name":"Chelsfield and Pratts Bottom","ward_2018_code":"E05000110","longitude":"0.08917328864004027","latitude":"51.35146840337202","easting":"545577.9605403307","northing":"163447.92852086015","runtime":"02/28/2021"},"geometry":{"type":"Point","coordinates":[0.089173,51.351468]}},{"type":"Feature","properties":{"name":"Queen's Head","address1":"73 High Street","address2":"Green St Green","address3":"Orpington","borough_name":"Bromley","borough_code":"E09000006","ward_2018_name":"Chelsfield and Pratts Bottom","ward_2018_code":"E05000110","longitude":"0.08923985768778407","latitude":"51.35293308317148","easting":"545577.9605410424","northing":"163610.9284765573","runtime":"02/28/2021"},"geometry":{"type":"Point","coordinates":[0.08924,51.352933]}},{"type":"Feature","properties":{"name":"Rose & Crown","address1":"Farnborough Way","address2":"Green St Green","address3":"Orpington","borough_name":"Bromley","borough_code":"E09000006","ward_2018_name":"Darwin","ward_2018_code":"E05000117","longitude":"0.08821496456049867","latitude":"51.350289414885474","easting":"545514.9605571243","northing":"163314.92855692783","runtime":"02/28/2021"},"geometry":{"type":"Point","coordinates":[0.088215,51.350289]}},{"type":"Feature","properties":{"name":"Chelsfield","address1":"1 Windsor Drive","address2":"Chelsfield","address3":"Orpington","borough_name":"Bromley","borough_code":"E09000006","ward_2018_name":"Chelsfield and Pratts Bottom","ward_2018_code":"E05000110","longitude":"0.10532368026204186","latitude":"51.35635018712362","easting":"546686.960240607","northing":"164022.92836501304","runtime":"02/28/2021"},"geometry":{"type":"Point","coordinates":[0.105324,51.35635]}},{"type":"Feature","properties":{"name":"Woodman","address1":"50 High Street","address2":"Farnborough","address3":"Orpington","borough_name":"Bromley","borough_code":"E09000006","ward_2018_name":"Farnborough and Crofton","ward_2018_code":"E05000118","longitude":"0.06997651599342945","latitude":"51.3592194673123","easting":"544216.9609128404","northing":"164271.92829950963","runtime":"02/28/2021"},"geometry":{"type":"Point","coordinates":[0.069977,51.359219]}},{"type":"Feature","properties":{"name":"Change of Horses","address1":"87 High Street","address2":"Farnborough","address3":"Orpington","borough_name":"Bromley","borough_code":"E09000006","ward_2018_name":"Farnborough and Crofton","ward_2018_code":"E05000118","longitude":"0.06772096922317528","latitude":"51.359529086025496","easting":"544058.9609557898","northing":"164301.9282916492","runtime":"02/28/2021"},"geometry":{"type":"Point","coordinates":[0.067721,51.359529]}},{"type":"Feature","properties":{"name":"Bulls Head","address1":"Rushmore Hill","address2":"Pratts Bottom","address3":"Orpington","borough_name":"Bromley","borough_code":"E09000006","ward_2018_name":"Chelsfield and Pratts Bottom","ward_2018_code":"E05000110","longitude":"0.11177491006267065","latitude":"51.34014508909452","easting":"547187.9601052469","northing":"162233.92885369313","runtime":"02/28/2021"},"geometry":{"type":"Point","coordinates":[0.111775,51.340145]}},{"type":"Feature","properties":{"name":"Bo Peep","address1":"Hewitts Road","address2":"Chelsfield","address3":"Orpington","borough_name":"Bromley","borough_code":"E09000006","ward_2018_name":"Chelsfield and Pratts Bottom","ward_2018_code":"E05000110","longitude":"0.13751727285195245","latitude":"51.35029868234211","easting":"548947.9596277777","northing":"163414.92853340524","runtime":"02/28/2021"},"geometry":{"type":"Point","coordinates":[0.137517,51.350299]}},{"type":"Feature","properties":{"name":"Five Bells","address1":"Church Road","address2":"Chelsfield","address3":"Orpington","borough_name":"Bromley","borough_code":"E09000006","ward_2018_name":"Chelsfield and Pratts Bottom","ward_2018_code":"E05000110","longitude":"0.1274899267468256","latitude":"51.357055516890235","easting":"548227.959821443","northing":"164145.92833184527","runtime":"02/28/2021"},"geometry":{"type":"Point","coordinates":[0.12749,51.357056]}},{"type":"Feature","properties":{"name":"Queen's Head","address1":"25 High Street","address2":"Downe","address3":"Orpington","borough_name":"Bromley","borough_code":"E09000006","ward_2018_name":"Darwin","ward_2018_code":"E05000117","longitude":"0.05387216619169143","latitude":"51.33666059428056","easting":"543165.9611983469","northing":"161731.92898976352","runtime":"02/28/2021"},"geometry":{"type":"Point","coordinates":[0.053872,51.336661]}},{"type":"Feature","properties":{"name":"George & Dragon","address1":"26 High Street","address2":"Downe","address3":"Orpington","borough_name":"Bromley","borough_code":"E09000006","ward_2018_name":"Darwin","ward_2018_code":"E05000117","longitude":"0.05372258988033514","latitude":"51.33620456110887","easting":"543156.9612008596","northing":"161680.92900356458","runtime":"02/28/2021"},"geometry":{"type":"Point","coordinates":[0.053723,51.336205]}},{"type":"Feature","properties":{"name":"Whyte Lyon (Ye Olde)","address1":"Farnborough Common","address2":"Locksbottom","address3":"Orpington","borough_name":"Bromley","borough_code":"E09000006","ward_2018_name":"Farnborough and Crofton","ward_2018_code":"E05000118","longitude":"0.057232922624144415","latitude":"51.36396732425988","easting":"543314.9611565119","northing":"164774.92816072505","runtime":"02/28/2021"},"geometry":{"type":"Point","coordinates":[0.057233,51.363967]}},{"type":"Feature","properties":{"name":"British Queen","address1":"427 Crofton Road","address2":"Locksbottom","address3":"Orpington","borough_name":"Bromley","borough_code":"E09000006","ward_2018_name":"Farnborough and Crofton","ward_2018_code":"E05000118","longitude":"0.05453966468267596","latitude":"51.366703426600736","easting":"543118.9612086854","northing":"165073.9280779019","runtime":"02/28/2021"},"geometry":{"type":"Point","coordinates":[0.05454,51.366703]}},{"type":"Feature","properties":{"name":"Black Horse","address1":"318 Crofton Road","address2":"Locksbottom","address3":"Orpington","borough_name":"Bromley","borough_code":"E09000006","ward_2018_name":"Farnborough and Crofton","ward_2018_code":"E05000118","longitude":"0.05672060945680429","latitude":"51.368247884071984","easting":"543265.9611692508","northing":"165249.92803026654","runtime":"02/28/2021"},"geometry":{"type":"Point","coordinates":[0.056721,51.368248]}},{"type":"Feature","properties":{"name":"Buff","address1":"Pinewood Drive","address2":"Orpington","borough_name":"Bromley","borough_code":"E09000006","ward_2018_name":"Chelsfield and Pratts Bottom","ward_2018_code":"E05000110","longitude":"0.08667679636787","latitude":"51.358797270613564","easting":"545380.9605970401","northing":"164257.92830076878","runtime":"02/28/2021"},"geometry":{"type":"Point","coordinates":[0.086677,51.358797]}},{"type":"Feature","properties":{"name":"Queens Head","address1":"2 High Street","address2":"Chislehurst","borough_name":"Bromley","borough_code":"E09000006","ward_2018_name":"Chislehurst","ward_2018_code":"E05000111","longitude":"0.06787714696421679","latitude":"51.418186102025295","easting":"543885.9610044444","northing":"170824.92651515536","runtime":"02/28/2021"},"geometry":{"type":"Point","coordinates":[0.067877,51.418186]}},{"type":"Feature","properties":{"name":"Gordon Arms","address1":"47 Park Road","address2":"Chislehurst","borough_name":"Bromley","borough_code":"E09000006","ward_2018_name":"Chislehurst","ward_2018_code":"E05000111","longitude":"0.06862357722059716","latitude":"51.41910818332729","easting":"543934.9609908444","northing":"170928.92648699996","runtime":"02/28/2021"},"geometry":{"type":"Point","coordinates":[0.068624,51.419108]}},{"type":"Feature","properties":{"name":"Imperial Arms","address1":"Old Hill","address2":"Chislehurst","borough_name":"Bromley","borough_code":"E09000006","ward_2018_name":"Chislehurst","ward_2018_code":"E05000111","longitude":"0.0608085687903328","latitude":"51.408769167894675","easting":"543423.9611269082","northing":"169763.92680831795","runtime":"02/28/2021"},"geometry":{"type":"Point","coordinates":[0.060809,51.408769]}},{"type":"Feature","properties":{"name":"Rambler's Rest","address1":"Mill Place","address2":"Chislehurst","borough_name":"Bromley","borough_code":"E09000006","ward_2018_name":"Chislehurst","ward_2018_code":"E05000111","longitude":"0.06197035093141799","latitude":"51.40870377925677","easting":"543504.9611048684","northing":"169758.9268096488","runtime":"02/28/2021"},"geometry":{"type":"Point","coordinates":[0.06197,51.408704]}},{"type":"Feature","properties":{"name":"Bickley","address1":"Chislehurst Road","address2":"Chislehurst","borough_name":"Bromley","borough_code":"E09000006","ward_2018_name":"Chislehurst","ward_2018_code":"E05000111","longitude":"0.055827576947672465","latitude":"51.40767856094799","easting":"543080.9612198692","northing":"169632.92684372357","runtime":"02/28/2021"},"geometry":{"type":"Point","coordinates":[0.055828,51.407679]}},{"type":"Feature","properties":{"name":"Tigers Head","address1":"Watts Lane","address2":"Chislehurst","borough_name":"Bromley","borough_code":"E09000006","ward_2018_name":"Chislehurst","ward_2018_code":"E05000111","longitude":"0.06900855079966504","latitude":"51.40948802339054","easting":"543991.9609722215","northing":"169859.92678074766","runtime":"02/28/2021"},"geometry":{"type":"Point","coordinates":[0.069009,51.409488]}},{"type":"Feature","properties":{"name":"Crown Inn","address1":"School Road","address2":"Chislehurst","borough_name":"Bromley","borough_code":"E09000006","ward_2018_name":"Chislehurst","ward_2018_code":"E05000111","longitude":"0.07295809077861395","latitude":"51.41065023746475","easting":"544262.9608983066","northing":"169996.92674232204","runtime":"02/28/2021"},"geometry":{"type":"Point","coordinates":[0.072958,51.41065]}},{"type":"Feature","properties":{"name":"Bull's Head Hotel","address1":"Royal Parade","address2":"Chislehurst","borough_name":"Bromley","borough_code":"E09000006","ward_2018_name":"Chislehurst","ward_2018_code":"E05000111","longitude":"0.07537331260721356","latitude":"51.411587704257016","easting":"544427.9608532577","northing":"170105.92671224615","runtime":"02/28/2021"},"geometry":{"type":"Point","coordinates":[0.075373,51.411588]}},{"type":"Feature","properties":{"name":"Sydney Arms","address1":"Old Perry Street","address2":"Chislehurst","borough_name":"Bromley","borough_code":"E09000006","ward_2018_name":"Chislehurst","ward_2018_code":"E05000111","longitude":"0.08669158383826334","latitude":"51.41507368546201","easting":"545203.9606427231","northing":"170515.92660211615","runtime":"02/28/2021"},"geometry":{"type":"Point","coordinates":[0.086692,51.415074]}},{"type":"Feature","properties":{"name":"Man on the Moon","address1":"112 Headley Drive, New Addington","address2":"Croydon","borough_name":"Croydon","borough_code":"E09000008","ward_2018_name":"New Addington North","ward_2018_code":"E05011470","longitude":"-0.01804983051743854","latitude":"51.35214354247703","easting":"538109.9625727639","northing":"163315.92855807068","runtime":"02/28/2021"},"geometry":{"type":"Point","coordinates":[-0.01805,51.352144]}},{"type":"Feature","properties":{"name":"Keg & Grill","address1":"1 South End","address2":"Croydon","borough_name":"Croydon","borough_code":"E09000008","ward_2018_name":"South Croydon","ward_2018_code":"E05011484","longitude":"-0.09874131111592606","latitude":"51.36688900510577","easting":"532448.9641105204","northing":"164806.92815119855","runtime":"02/28/2021"},"geometry":{"type":"Point","coordinates":[-0.098741,51.366889]}},{"type":"Feature","properties":{"name":"Joker","address1":"73 South End","address2":"Croydon","borough_name":"Croydon","borough_code":"E09000008","ward_2018_name":"South Croydon","ward_2018_code":"E05011484","longitude":"-0.09872085165193514","latitude":"51.365647641777045","easting":"532453.964109372","northing":"164668.92818931228","runtime":"02/28/2021"},"geometry":{"type":"Point","coordinates":[-0.098721,51.365648]}},{"type":"Feature","properties":{"name":"Obia Bar & Grill","address1":"49c South End","address2":"Croydon","borough_name":"Croydon","borough_code":"E09000008","ward_2018_name":"South Croydon","ward_2018_code":"E05011484","longitude":"-0.09872085165193514","latitude":"51.365647641777045","easting":"532453.964109372","northing":"164668.92818931228","runtime":"02/28/2021"},"geometry":{"type":"Point","coordinates":[-0.098721,51.365648]}},{"type":"Feature","properties":{"name":"Surrey Cricketers","address1":"23 West Street","address2":"Croydon","borough_name":"Croydon","borough_code":"E09000008","ward_2018_name":"Fairfield","ward_2018_code":"E05011468","longitude":"-0.1005843785168162","latitude":"51.36817792499301","easting":"532316.9641460805","northing":"164946.9281131088","runtime":"02/28/2021"},"geometry":{"type":"Point","coordinates":[-0.100584,51.368178]}},{"type":"Feature","properties":{"name":"Apatura Lounge Restaurant","address1":"14 South End","address2":"Croydon","borough_name":"Croydon","borough_code":"E09000008","ward_2018_name":"Fairfield","ward_2018_code":"E05011468","longitude":"-0.09916643656240308","latitude":"51.367030801753415","easting":"532418.9641185948","northing":"164821.92814697977","runtime":"02/28/2021"},"geometry":{"type":"Point","coordinates":[-0.099166,51.367031]}},{"type":"Feature","properties":{"name":"Scream Lounge","address1":"20 South End","address2":"Croydon","borough_name":"Croydon","borough_code":"E09000008","ward_2018_name":"Fairfield","ward_2018_code":"E05011468","longitude":"-0.09928924270733647","latitude":"51.36649321655577","easting":"532411.9641205708","northing":"164761.92816354445","runtime":"02/28/2021"},"geometry":{"type":"Point","coordinates":[-0.099289,51.366493]}},{"type":"Feature","properties":{"name":"Treehouse","address1":"78 South End","address2":"Croydon","borough_name":"Croydon","borough_code":"E09000008","ward_2018_name":"Fairfield","ward_2018_code":"E05011468","longitude":"-0.09924869138061894","latitude":"51.36573714806905","easting":"532416.964119344","northing":"164677.92818676995","runtime":"02/28/2021"},"geometry":{"type":"Point","coordinates":[-0.099249,51.365737]}},{"type":"Feature","properties":{"name":"Skylark","address1":"34-36 South End","address2":"Croydon","borough_name":"Croydon","borough_code":"E09000008","ward_2018_name":"Fairfield","ward_2018_code":"E05011468","longitude":"-0.09924869138061894","latitude":"51.36573714806905","easting":"532416.964119344","northing":"164677.92818676995","runtime":"02/28/2021"},"geometry":{"type":"Point","coordinates":[-0.099249,51.365737]}},{"type":"Feature","properties":{"name":"Matthews Yard","address1":"1 Matthews Yard","address2":"Croydon","borough_name":"Croydon","borough_code":"E09000008","ward_2018_name":"Fairfield","ward_2018_code":"E05011468","longitude":"-0.10109493459058976","latitude":"51.3721610649373","easting":"532269.9641586645","northing":"165388.9279947675","runtime":"02/28/2021"},"geometry":{"type":"Point","coordinates":[-0.101095,51.372161]}},{"type":"Feature","properties":{"name":"Milan Bar","address1":"16 High Street","address2":"Croydon","borough_name":"Croydon","borough_code":"E09000008","ward_2018_name":"Fairfield","ward_2018_code":"E05011468","longitude":"-0.10078756035799079","latitude":"51.37299242021251","easting":"532288.9641535381","northing":"165481.92796986597","runtime":"02/28/2021"},"geometry":{"type":"Point","coordinates":[-0.100788,51.372992]}},{"type":"Feature","properties":{"name":"Slug & Lettuce","address1":"10 Park Lane","address2":"Croydon","borough_name":"Croydon","borough_code":"E09000008","ward_2018_name":"Fairfield","ward_2018_code":"E05011468","longitude":"-0.09730612072041647","latitude":"51.373790243767694","easting":"532528.9640890141","northing":"165576.9279441483","runtime":"02/28/2021"},"geometry":{"type":"Point","coordinates":[-0.097306,51.37379]}},{"type":"Feature","properties":{"name":"George","address1":"17-21 George Street","address2":"Croydon","borough_name":"Croydon","borough_code":"E09000008","ward_2018_name":"Fairfield","ward_2018_code":"E05011468","longitude":"-0.09857066330061319","latitude":"51.37413452303796","easting":"532439.9641129395","northing":"165612.9279345856","runtime":"02/28/2021"},"geometry":{"type":"Point","coordinates":[-0.098571,51.374135]}},{"type":"Feature","properties":{"name":"Cronx","address1":"Units 3 & 4, Boxpark Croydon, 99 George Street","address2":"Croydon","borough_name":"Croydon","borough_code":"E09000008","ward_2018_name":"Fairfield","ward_2018_code":"E05011468","longitude":"-0.09467827981509003","latitude":"51.37479070720711","easting":"532708.9640406864","northing":"165692.9279126437","runtime":"02/28/2021"},"geometry":{"type":"Point","coordinates":[-0.094678,51.374791]}},{"type":"Feature","properties":{"name":"Beatbox","address1":"Units 22-26, Ground Floor, Boxpark Croydon","address2":"Croydon","borough_name":"Croydon","borough_code":"E09000008","ward_2018_name":"Fairfield","ward_2018_code":"E05011468","longitude":"-0.09467827981509003","latitude":"51.37479070720711","easting":"532708.9640406864","northing":"165692.9279126437","runtime":"02/28/2021"},"geometry":{"type":"Point","coordinates":[-0.094678,51.374791]}},{"type":"Feature","properties":{"name":"Green Dragon","address1":"58 High Street","address2":"Croydon","borough_name":"Croydon","borough_code":"E09000008","ward_2018_name":"Fairfield","ward_2018_code":"E05011468","longitude":"-0.10053685928055285","latitude":"51.37106387499904","easting":"532311.9641473797","northing":"165267.9280271575","runtime":"02/28/2021"},"geometry":{"type":"Point","coordinates":[-0.100537,51.371064]}},{"type":"Feature","properties":{"name":"Memory Box","address1":"80-88 High Street","address2":"Croydon","borough_name":"Croydon","borough_code":"E09000008","ward_2018_name":"Fairfield","ward_2018_code":"E05011468","longitude":"-0.10053685928055285","latitude":"51.37106387499904","easting":"532311.9641473797","northing":"165267.9280271575","runtime":"02/28/2021"},"geometry":{"type":"Point","coordinates":[-0.100537,51.371064]}},{"type":"Feature","properties":{"name":"Crown & Pepper","address1":"242 High Street","address2":"Croydon","borough_name":"Croydon","borough_code":"E09000008","ward_2018_name":"Fairfield","ward_2018_code":"E05011468","longitude":"-0.09986511968018218","latitude":"51.368894681515265","easting":"532364.9641331274","northing":"165027.92809149745","runtime":"02/28/2021"},"geometry":{"type":"Point","coordinates":[-0.099865,51.368895]}},{"type":"Feature","properties":{"name":"South Beats","address1":"282 High Street","address2":"Croydon","borough_name":"Croydon","borough_code":"E09000008","ward_2018_name":"Fairfield","ward_2018_code":"E05011468","longitude":"-0.09945462509717559","latitude":"51.36805167963892","easting":"532395.9641247716","northing":"164934.92811647838","runtime":"02/28/2021"},"geometry":{"type":"Point","coordinates":[-0.099455,51.368052]}},{"type":"Feature","properties":{"name":"Spreadeagle","address1":"39-41 Katharine Street","address2":"Croydon","borough_name":"Croydon","borough_code":"E09000008","ward_2018_name":"Fairfield","ward_2018_code":"E05011468","longitude":"-0.09924069650737923","latitude":"51.37252667525792","easting":"532397.9641242254","northing":"165432.92798293027","runtime":"02/28/2021"},"geometry":{"type":"Point","coordinates":[-0.099241,51.372527]}},{"type":"Feature","properties":{"name":"Ship","address1":"47 High Street","address2":"Croydon","borough_name":"Croydon","borough_code":"E09000008","ward_2018_name":"Fairfield","ward_2018_code":"E05011468","longitude":"-0.10006559288899061","latitude":"51.372036456891756","easting":"532341.9641392926","northing":"165376.92799796327","runtime":"02/28/2021"},"geometry":{"type":"Point","coordinates":[-0.100066,51.372036]}},{"type":"Feature","properties":{"name":"Dog & Bull","address1":"24 Surrey Street","address2":"Croydon","borough_name":"Croydon","borough_code":"E09000008","ward_2018_name":"Fairfield","ward_2018_code":"E05011468","longitude":"-0.1015692429479332","latitude":"51.37285221348353","easting":"532234.9641680636","northing":"165464.9279744529","runtime":"02/28/2021"},"geometry":{"type":"Point","coordinates":[-0.101569,51.372852]}},{"type":"Feature","properties":{"name":"Market Tavern","address1":"1-4 Surrey Street","address2":"Croydon","borough_name":"Croydon","borough_code":"E09000008","ward_2018_name":"Fairfield","ward_2018_code":"E05011468","longitude":"-0.1015692429479332","latitude":"51.37285221348353","easting":"532234.9641680636","northing":"165464.9279744529","runtime":"02/28/2021"},"geometry":{"type":"Point","coordinates":[-0.101569,51.372852]}},{"type":"Feature","properties":{"name":"Art & Craft CR0","address1":"46 Surrey Street","address2":"Croydon","borough_name":"Croydon","borough_code":"E09000008","ward_2018_name":"Fairfield","ward_2018_code":"E05011468","longitude":"-0.100848104385553","latitude":"51.37257073593529","easting":"532285.9641543514","northing":"165434.92798244837","runtime":"02/28/2021"},"geometry":{"type":"Point","coordinates":[-0.100848,51.372571]}},{"type":"Feature","properties":{"name":"Mr Fox","address1":"34 Surrey Street","address2":"Croydon","borough_name":"Croydon","borough_code":"E09000008","ward_2018_name":"Fairfield","ward_2018_code":"E05011468","longitude":"-0.100848104385553","latitude":"51.37257073593529","easting":"532285.9641543514","northing":"165434.92798244837","runtime":"02/28/2021"},"geometry":{"type":"Point","coordinates":[-0.100848,51.372571]}},{"type":"Feature","properties":{"name":"Royal Standard","address1":"1 Sheldon Street","address2":"Croydon","borough_name":"Croydon","borough_code":"E09000008","ward_2018_name":"Fairfield","ward_2018_code":"E05011468","longitude":"-0.10196871345245187","latitude":"51.369792109003","easting":"532215.9641733847","northing":"165123.92806569225","runtime":"02/28/2021"},"geometry":{"type":"Point","coordinates":[-0.101969,51.369792]}},{"type":"Feature","properties":{"name":"Bulls Head","address1":"39 Laud Street","address2":"Croydon","borough_name":"Croydon","borough_code":"E09000008","ward_2018_name":"Fairfield","ward_2018_code":"E05011468","longitude":"-0.1009832407787295","latitude":"51.36965023630771","easting":"532284.9641546782","northing":"165109.9280694322","runtime":"02/28/2021"},"geometry":{"type":"Point","coordinates":[-0.100983,51.36965]}},{"type":"Feature","properties":{"name":"Bishop's Wine Bar","address1":"1129 Whitgift Centre","address2":"Croydon","borough_name":"Croydon","borough_code":"E09000008","ward_2018_name":"Fairfield","ward_2018_code":"E05011468","longitude":"-0.10031534482807207","latitude":"51.37537687232563","easting":"532314.9641465176","northing":"165747.92789859168","runtime":"02/28/2021"},"geometry":{"type":"Point","coordinates":[-0.100315,51.375377]}},{"type":"Feature","properties":{"name":"Luna","address1":"18 High Street","address2":"Croydon","borough_name":"Croydon","borough_code":"E09000008","ward_2018_name":"Fairfield","ward_2018_code":"E05011468","longitude":"-0.10055024927538463","latitude":"51.37351915275242","easting":"532303.9641494956","northing":"165540.92795405374","runtime":"02/28/2021"},"geometry":{"type":"Point","coordinates":[-0.10055,51.373519]}},{"type":"Feature","properties":{"name":"Dice","address1":"36 High Street","address2":"Croydon","borough_name":"Croydon","borough_code":"E09000008","ward_2018_name":"Fairfield","ward_2018_code":"E05011468","longitude":"-0.10056539478077259","latitude":"51.37245823676616","easting":"532305.9641489745","northing":"165422.92798565177","runtime":"02/28/2021"},"geometry":{"type":"Point","coordinates":[-0.100565,51.372458]}},{"type":"Feature","properties":{"name":"Alchemy","address1":"28-30 St George's Walk","address2":"Croydon","borough_name":"Croydon","borough_code":"E09000008","ward_2018_name":"Fairfield","ward_2018_code":"E05011468","longitude":"-0.09805979498160182","latitude":"51.37293916469844","easting":"532478.9641024413","northing":"165480.92796999862","runtime":"02/28/2021"},"geometry":{"type":"Point","coordinates":[-0.09806,51.372939]}},{"type":"Feature","properties":{"name":"Windmill","address1":"224 St James's Road","address2":"Croydon","borough_name":"Croydon","borough_code":"E09000008","ward_2018_name":"Fairfield","ward_2018_code":"E05011468","longitude":"-0.09336413093500247","latitude":"51.38152294472848","easting":"532780.964022221","northing":"166443.9277081273","runtime":"02/28/2021"},"geometry":{"type":"Point","coordinates":[-0.093364,51.381523]}},{"type":"Feature","properties":{"name":"Two Brewers","address1":"221 Gloucester Road","address2":"Croydon","borough_name":"Croydon","borough_code":"E09000008","ward_2018_name":"Selhurst","ward_2018_code":"E05011479","longitude":"-0.08982987610664978","latitude":"51.388057122996166","easting":"533007.963959305","northing":"167176.927508966","runtime":"02/28/2021"},"geometry":{"type":"Point","coordinates":[-0.08983,51.388057]}},{"type":"Feature","properties":{"name":"Bedford Tavern","address1":"16 Sydenham Road","address2":"Croydon","borough_name":"Croydon","borough_code":"E09000008","ward_2018_name":"Fairfield","ward_2018_code":"E05011468","longitude":"-0.09443861700020093","latitude":"51.38021847770861","easting":"532709.9640411962","northing":"166296.92774813809","runtime":"02/28/2021"},"geometry":{"type":"Point","coordinates":[-0.094439,51.380218]}},{"type":"Feature","properties":{"name":"Olde Clock Tower","address1":"35 Whitehorse Road","address2":"Croydon","borough_name":"Croydon","borough_code":"E09000008","ward_2018_name":"Selhurst","ward_2018_code":"E05011479","longitude":"-0.09774592115727036","latitude":"51.38502040436206","easting":"532465.9641076067","northing":"166824.9276039205","runtime":"02/28/2021"},"geometry":{"type":"Point","coordinates":[-0.097746,51.38502]}},{"type":"Feature","properties":{"name":"Pawson's Arms","address1":"69 Pawson's Road","address2":"Croydon","borough_name":"Croydon","borough_code":"E09000008","ward_2018_name":"Selhurst","ward_2018_code":"E05011479","longitude":"-0.0960172481797917","latitude":"51.39307686604229","easting":"532562.9640798098","northing":"167723.92736020475","runtime":"02/28/2021"},"geometry":{"type":"Point","coordinates":[-0.096017,51.393077]}},{"type":"Feature","properties":{"name":"Lion Inn","address1":"182 Pawson's Road","address2":"Croydon","borough_name":"Croydon","borough_code":"E09000008","ward_2018_name":"Bensham Manor","ward_2018_code":"E05011464","longitude":"-0.0990027890681076","latitude":"51.391794420142894","easting":"532358.9641358781","northing":"167575.92740070628","runtime":"02/28/2021"},"geometry":{"type":"Point","coordinates":[-0.099003,51.391794]}},{"type":"Feature","properties":{"name":"Phoenix","address1":"12 Station Road","address2":"Croydon","borough_name":"Croydon","borough_code":"E09000008","ward_2018_name":"Fairfield","ward_2018_code":"E05011468","longitude":"-0.10153019119611797","latitude":"51.378660932974896","easting":"532220.964172648","northing":"166110.92779907928","runtime":"02/28/2021"},"geometry":{"type":"Point","coordinates":[-0.10153,51.378661]}},{"type":"Feature","properties":{"name":"Old Fox & Hounds","address1":"1 London Road","address2":"Croydon","borough_name":"Croydon","borough_code":"E09000008","ward_2018_name":"Fairfield","ward_2018_code":"E05011468","longitude":"-0.10372878423475612","latitude":"51.378660541084066","easting":"532067.9642143081","northing":"166106.92780031374","runtime":"02/28/2021"},"geometry":{"type":"Point","coordinates":[-0.103729,51.378661]}},{"type":"Feature","properties":{"name":"Saints & Sinners","address1":"482 London Road","address2":"Croydon","borough_name":"Croydon","borough_code":"E09000008","ward_2018_name":"West Thornton","ward_2018_code":"E05011488","longitude":"-0.1107792385172668","latitude":"51.38750633051695","easting":"531551.9643546509","northing":"167077.92753626563","runtime":"02/28/2021"},"geometry":{"type":"Point","coordinates":[-0.110779,51.387506]}},{"type":"Feature","properties":{"name":"Golden Lion","address1":"144 Stanley Road","address2":"Croydon","borough_name":"Croydon","borough_code":"E09000008","ward_2018_name":"West Thornton","ward_2018_code":"E05011488","longitude":"-0.11624501254082358","latitude":"51.38670396834442","easting":"531173.9644564681","northing":"166978.92756356788","runtime":"02/28/2021"},"geometry":{"type":"Point","coordinates":[-0.116245,51.386704]}},{"type":"Feature","properties":{"name":"Wandle Arms","address1":"90 Waddon New Road","address2":"Croydon","borough_name":"Croydon","borough_code":"E09000008","ward_2018_name":"Waddon","ward_2018_code":"E05011487","longitude":"-0.10828801739289724","latitude":"51.37403098519846","easting":"531763.9642971962","northing":"165583.9279431373","runtime":"02/28/2021"},"geometry":{"type":"Point","coordinates":[-0.108288,51.374031]}},{"type":"Feature","properties":{"name":"Waddon","address1":"2 Stafford Road","address2":"Croydon","borough_name":"Croydon","borough_code":"E09000008","ward_2018_name":"Waddon","ward_2018_code":"E05011487","longitude":"-0.11685517932419186","latitude":"51.366588064987155","easting":"531188.96445417","northing":"164740.92817067186","runtime":"02/28/2021"},"geometry":{"type":"Point","coordinates":[-0.116855,51.366588]}},{"type":"Feature","properties":{"name":"Hare & Hounds","address1":"325 Purley Way","address2":"Croydon","borough_name":"Croydon","borough_code":"E09000008","ward_2018_name":"Waddon","ward_2018_code":"E05011487","longitude":"-0.11713981918712298","latitude":"51.37225805026119","easting":"531152.9644646056","northing":"165370.92800110538","runtime":"02/28/2021"},"geometry":{"type":"Point","coordinates":[-0.11714,51.372258]}},{"type":"Feature","properties":{"name":"Plough","address1":"Croydon Road","address2":"Croydon","address3":"Beddington","borough_name":"Sutton","borough_code":"E09000029","ward_2018_name":"Beddington North","ward_2018_code":"E05000555","longitude":"-0.131871226275317","latitude":"51.3672060131837","easting":"530141.9647415251","northing":"164782.9281579678","runtime":"02/28/2021"},"geometry":{"type":"Point","coordinates":[-0.131871,51.367206]}},{"type":"Feature","properties":{"name":"Harvest Home","address1":"27 Beddington Lane","address2":"Croydon","borough_name":"Sutton","borough_code":"E09000029","ward_2018_name":"Beddington North","ward_2018_code":"E05000555","longitude":"-0.1317035198538915","latitude":"51.372032402596524","easting":"530139.964742328","northing":"165319.92801204376","runtime":"02/28/2021"},"geometry":{"type":"Point","coordinates":[-0.131704,51.372032]}},{"type":"Feature","properties":{"name":"Frankie & Benny's","address1":"Valley Leisure Park Purley Way","address2":"Croydon","borough_name":"Croydon","borough_code":"E09000008","ward_2018_name":"Broad Green","ward_2018_code":"E05011465","longitude":"-0.12330028270643166","latitude":"51.37725783096052","easting":"530709.9645855421","northing":"165915.9278522617","runtime":"02/28/2021"},"geometry":{"type":"Point","coordinates":[-0.1233,51.377258]}},{"type":"Feature","properties":{"name":"Beach Road Cafe Bar","address1":"23 Hesterman Way","address2":"Croydon","borough_name":"Croydon","borough_code":"E09000008","ward_2018_name":"Broad Green","ward_2018_code":"E05011465","longitude":"-0.12450070304906824","latitude":"51.37812234849377","easting":"530623.9646087349","northing":"166009.92782629275","runtime":"02/28/2021"},"geometry":{"type":"Point","coordinates":[-0.124501,51.378122]}},{"type":"Feature","properties":{"name":"Cricketers Inn","address1":"36 Addington Village Road, Addington","address2":"Croydon","borough_name":"Croydon","borough_code":"E09000008","ward_2018_name":"Selsdon & Addington Village","ward_2018_code":"E05011480","longitude":"-0.030009167888513093","latitude":"51.35860388990073","easting":"537257.9628064384","northing":"164011.9283681236","runtime":"02/28/2021"},"geometry":{"type":"Point","coordinates":[-0.030009,51.358604]}},{"type":"Feature","properties":{"name":"Surprise","address1":"107 Upper Shirley Road","address2":"Croydon","borough_name":"Croydon","borough_code":"E09000008","ward_2018_name":"Shirly South","ward_2018_code":"E05011483","longitude":"-0.05345048594838292","latitude":"51.3677544747241","easting":"535598.9632543115","northing":"164985.92810356274","runtime":"02/28/2021"},"geometry":{"type":"Point","coordinates":[-0.05345,51.367754]}},{"type":"Feature","properties":{"name":"Coombe Lodge","address1":"104 Coombe Road","address2":"Croydon","borough_name":"Croydon","borough_code":"E09000008","ward_2018_name":"South Croydon","ward_2018_code":"E05011484","longitude":"-0.07152740951332891","latitude":"51.36253200540739","easting":"534355.9635942546","northing":"164371.92827004043","runtime":"02/28/2021"},"geometry":{"type":"Point","coordinates":[-0.071527,51.362532]}},{"type":"Feature","properties":{"name":"Orchard","address1":"112 Cherry Orchard Road","address2":"Croydon","borough_name":"Croydon","borough_code":"E09000008","ward_2018_name":"Addiscombe West","ward_2018_code":"E05011463","longitude":"-0.08960377079900425","latitude":"51.37795448953707","easting":"533052.9639485329","northing":"166053.92781413707","runtime":"02/28/2021"},"geometry":{"type":"Point","coordinates":[-0.089604,51.377954]}},{"type":"Feature","properties":{"name":"Oval Tavern","address1":"131 Oval Road","address2":"Croydon","borough_name":"Croydon","borough_code":"E09000008","ward_2018_name":"Addiscombe West","ward_2018_code":"E05011463","longitude":"-0.08850492574961794","latitude":"51.37811642455443","easting":"533128.9639280881","northing":"166073.92780865612","runtime":"02/28/2021"},"geometry":{"type":"Point","coordinates":[-0.088505,51.378116]}},{"type":"Feature","properties":{"name":"Porter & Sorter","address1":"Station Road","address2":"Croydon","borough_name":"Croydon","borough_code":"E09000008","ward_2018_name":"Addiscombe West","ward_2018_code":"E05011463","longitude":"-0.09184107636983284","latitude":"51.37598554474069","easting":"532902.9639886892","northing":"165830.92787489324","runtime":"02/28/2021"},"geometry":{"type":"Point","coordinates":[-0.091841,51.375986]}},{"type":"Feature","properties":{"name":"Alma Tavern","address1":"127-129 Lower Addiscombe Road","address2":"Croydon","borough_name":"Croydon","borough_code":"E09000008","ward_2018_name":"Addiscombe West","ward_2018_code":"E05011463","longitude":"-0.08193447140609553","latitude":"51.3795737550482","easting":"533581.9638047569","northing":"166247.92776170524","runtime":"02/28/2021"},"geometry":{"type":"Point","coordinates":[-0.081934,51.379574]}},{"type":"Feature","properties":{"name":"Cricketers","address1":"107 Addiscombe Road","address2":"Croydon","borough_name":"Croydon","borough_code":"E09000008","ward_2018_name":"Addiscombe West","ward_2018_code":"E05011463","longitude":"-0.08378221345702673","latitude":"51.37524245977337","easting":"533465.9638368114","northing":"165762.9278925442","runtime":"02/28/2021"},"geometry":{"type":"Point","coordinates":[-0.083782,51.375242]}},{"type":"Feature","properties":{"name":"Builders Arms","address1":"65 Leslie Park Road","address2":"Croydon","borough_name":"Croydon","borough_code":"E09000008","ward_2018_name":"Addiscombe West","ward_2018_code":"E05011463","longitude":"-0.08682981265592797","latitude":"51.379348088714465","easting":"533241.9638976946","northing":"166213.92777072056","runtime":"02/28/2021"},"geometry":{"type":"Point","coordinates":[-0.08683,51.379348]}},{"type":"Feature","properties":{"name":"Claret & Ale","address1":"5 Bingham Corner, Lower Addiscombe Road","address2":"Addiscombe","borough_name":"Croydon","borough_code":"E09000008","ward_2018_name":"Addiscombe East","ward_2018_code":"E05011462","longitude":"-0.07343833096762373","latitude":"51.379991753779876","easting":"534171.9636420818","northing":"166309.92774545425","runtime":"02/28/2021"},"geometry":{"type":"Point","coordinates":[-0.073438,51.379992]}},{"type":"Feature","properties":{"name":"Cricketers","address1":"47 Shirley Road","address2":"Addiscombe","borough_name":"Croydon","borough_code":"E09000008","ward_2018_name":"Shirley North","ward_2018_code":"E05011482","longitude":"-0.06275075501719993","latitude":"51.38159585295108","easting":"534910.9634417369","northing":"166507.927692484","runtime":"02/28/2021"},"geometry":{"type":"Point","coordinates":[-0.062751,51.381596]}},{"type":"Feature","properties":{"name":"Orchard","address1":"116 Orchard Way","address2":"Croydon","borough_name":"Croydon","borough_code":"E09000008","ward_2018_name":"Shirley North","ward_2018_code":"E05011482","longitude":"-0.040164969340526054","latitude":"51.38617505656144","easting":"536468.9630193341","northing":"167058.92754292715","runtime":"02/28/2021"},"geometry":{"type":"Point","coordinates":[-0.040165,51.386175]}},{"type":"Feature","properties":{"name":"Crown","address1":"28 Wickham Road, Shirley","address2":"Croydon","borough_name":"Croydon","borough_code":"E09000008","ward_2018_name":"Shirley North","ward_2018_code":"E05011482","longitude":"-0.054579693999235894","latitude":"51.3736545217997","easting":"535502.9632829677","northing":"165639.9279282567","runtime":"02/28/2021"},"geometry":{"type":"Point","coordinates":[-0.05458,51.373655]}},{"type":"Feature","properties":{"name":"Shirley Inn","address1":"158 Wickham Road","address2":"Croydon","borough_name":"Croydon","borough_code":"E09000008","ward_2018_name":"Shirley North","ward_2018_code":"E05011482","longitude":"-0.05051520296277779","latitude":"51.37428835177438","easting":"535783.9632074967","northing":"165717.92790754867","runtime":"02/28/2021"},"geometry":{"type":"Point","coordinates":[-0.050515,51.374288]}},{"type":"Feature","properties":{"name":"Forestdale Arms","address1":"Forestdale Centre, Featherbed Lane","address2":"Croydon","borough_name":"Croydon","borough_code":"E09000008","ward_2018_name":"Selsdon Vale & Forestdale","ward_2018_code":"E05011481","longitude":"-0.038024513783751594","latitude":"51.35086947834661","easting":"536722.9629511915","northing":"163136.92860680085","runtime":"02/28/2021"},"geometry":{"type":"Point","coordinates":[-0.038025,51.350869]}},{"type":"Feature","properties":{"name":"Randall Tavern","address1":"Fieldway, New Addington","address2":"Croydon","borough_name":"Croydon","borough_code":"E09000008","ward_2018_name":"New Addington North","ward_2018_code":"E05011470","longitude":"-0.020194017514454866","latitude":"51.35470677684243","easting":"537952.9626163333","northing":"163596.92848108924","runtime":"02/28/2021"},"geometry":{"type":"Point","coordinates":[-0.020194,51.354707]}},{"type":"Feature","properties":{"name":"Toby Carvery","address1":"415 Brighton Road, Croydon","address2":"South Croydon","borough_name":"Croydon","borough_code":"E09000008","ward_2018_name":"South Croydon","ward_2018_code":"E05011484","longitude":"-0.09744364707289718","latitude":"51.355554836575756","easting":"532571.9640785708","northing":"163548.9284949943","runtime":"02/28/2021"},"geometry":{"type":"Point","coordinates":[-0.097444,51.355555]}},{"type":"Feature","properties":{"name":"Purley Arms","address1":"345 Brighton Road","address2":"South Croydon","borough_name":"Croydon","borough_code":"E09000008","ward_2018_name":"South Croydon","ward_2018_code":"E05011484","longitude":"-0.09882820672079667","latitude":"51.35125180804943","easting":"532487.9641013169","northing":"163067.92862351908","runtime":"02/28/2021"},"geometry":{"type":"Point","coordinates":[-0.098828,51.351252]}},{"type":"Feature","properties":{"name":"Whelan's","address1":"13 Selsdon Road","address2":"South Croydon","borough_name":"Croydon","borough_code":"E09000008","ward_2018_name":"South Croydon","ward_2018_code":"E05011484","longitude":"-0.09668578705373444","latitude":"51.36275481147992","easting":"532603.964069337","northing":"164350.92827703344","runtime":"02/28/2021"},"geometry":{"type":"Point","coordinates":[-0.096686,51.362755]}},{"type":"Feature","properties":{"name":"Crown & Sceptre","address1":"32 Junction Road","address2":"South Croydon","borough_name":"Croydon","borough_code":"E09000008","ward_2018_name":"South Croydon","ward_2018_code":"E05011484","longitude":"-0.09653418919667521","latitude":"51.35947889962141","easting":"532623.9640644533","northing":"163986.92837717012","runtime":"02/28/2021"},"geometry":{"type":"Point","coordinates":[-0.096534,51.359479]}},{"type":"Feature","properties":{"name":"Croham Arms","address1":"1 Croham Road","address2":"South Croydon","borough_name":"Croydon","borough_code":"E09000008","ward_2018_name":"South Croydon","ward_2018_code":"E05011484","longitude":"-0.09495119053508391","latitude":"51.362321918560376","easting":"532725.964036463","northing":"164305.92828929058","runtime":"02/28/2021"},"geometry":{"type":"Point","coordinates":[-0.094951,51.362322]}},{"type":"Feature","properties":{"name":"Sir Julian Huxley","address1":"152 Addington Road","address2":"Selsdon","borough_name":"Croydon","borough_code":"E09000008","ward_2018_name":"Selsdon Vale & Forestdale","ward_2018_code":"E05011481","longitude":"-0.061895680653618466","latitude":"51.34365003058964","easting":"535081.9633958463","northing":"162289.92883614945","runtime":"02/28/2021"},"geometry":{"type":"Point","coordinates":[-0.061896,51.34365]}},{"type":"Feature","properties":{"name":"Golden Ark","address1":"186 Addington Road","address2":"Selsdon","borough_name":"Croydon","borough_code":"E09000008","ward_2018_name":"Selsdon Vale & Forestdale","ward_2018_code":"E05011481","longitude":"-0.061895680653618466","latitude":"51.34365003058964","easting":"535081.9633958463","northing":"162289.92883614945","runtime":"02/28/2021"},"geometry":{"type":"Point","coordinates":[-0.061896,51.34365]}},{"type":"Feature","properties":{"name":"Fox","address1":"Coulsdon Corner Fox Lane","address2":"Coulsdon","borough_name":"Croydon","borough_code":"E09000008","ward_2018_name":"Old Coulsdon","ward_2018_code":"E05011474","longitude":"-0.1088433372915158","latitude":"51.29595442361849","easting":"531948.9642489282","northing":"156900.93030303274","runtime":"02/28/2021"},"geometry":{"type":"Point","coordinates":[-0.108843,51.295954]}},{"type":"Feature","properties":{"name":"Gardeners Arms","address1":"107 London Road","address2":"Mitcham","borough_name":"Merton","borough_code":"E09000024","ward_2018_name":"Figge's Marsh","ward_2018_code":"E05000460","longitude":"-0.161697238895017","latitude":"51.41018586936025","easting":"527945.9653341016","northing":"169509.92687315575","runtime":"02/28/2021"},"geometry":{"type":"Point","coordinates":[-0.161697,51.410186]}},{"type":"Feature","properties":{"name":"White Lion of Mortimer","address1":"223 London Road","address2":"Mitcham","borough_name":"Merton","borough_code":"E09000024","ward_2018_name":"Figge's Marsh","ward_2018_code":"E05000460","longitude":"-0.1634902920822519","latitude":"51.40706646271421","easting":"527829.9653662491","northing":"169159.92696812312","runtime":"02/28/2021"},"geometry":{"type":"Point","coordinates":[-0.16349,51.407066]}},{"type":"Feature","properties":{"name":"Kings Arms","address1":"268 London Road","address2":"Mitcham","borough_name":"Merton","borough_code":"E09000024","ward_2018_name":"Figge's Marsh","ward_2018_code":"E05000460","longitude":"-0.16419840254694737","latitude":"51.406618917907174","easting":"527781.9653793765","northing":"169108.92698206566","runtime":"02/28/2021"},"geometry":{"type":"Point","coordinates":[-0.164198,51.406619]}},{"type":"Feature","properties":{"name":"Crown Inn","address1":"407 London Road","address2":"Mitcham","borough_name":"Merton","borough_code":"E09000024","ward_2018_name":"Cricket Green","ward_2018_code":"E05000458","longitude":"-0.17219249812122836","latitude":"51.39797592776113","easting":"527249.9655242087","northing":"168133.92724881409","runtime":"02/28/2021"},"geometry":{"type":"Point","coordinates":[-0.172192,51.397976]}},{"type":"Feature","properties":{"name":"Surrey Arms","address1":"Morden Road","address2":"Mitcham","borough_name":"Merton","borough_code":"E09000024","ward_2018_name":"Ravensbury","ward_2018_code":"E05000468","longitude":"-0.1810917493267257","latitude":"51.400137784419776","easting":"526624.9656924733","northing":"168358.92718847498","runtime":"02/28/2021"},"geometry":{"type":"Point","coordinates":[-0.181092,51.400138]}},{"type":"Feature","properties":{"name":"Windmill","address1":"40 Commonside West","address2":"Mitcham","borough_name":"Merton","borough_code":"E09000024","ward_2018_name":"Figge's Marsh","ward_2018_code":"E05000460","longitude":"-0.16156779462641546","latitude":"51.40301654792829","easting":"527974.9653280545","northing":"168712.92709034804","runtime":"02/28/2021"},"geometry":{"type":"Point","coordinates":[-0.161568,51.403017]}},{"type":"Feature","properties":{"name":"Park Place","address1":"54 Commonside West","address2":"Mitcham","borough_name":"Merton","borough_code":"E09000024","ward_2018_name":"Cricket Green","ward_2018_code":"E05000458","longitude":"-0.16042557092183246","latitude":"51.4003097816218","easting":"528061.9653052916","northing":"168413.92717221833","runtime":"02/28/2021"},"geometry":{"type":"Point","coordinates":[-0.160426,51.40031]}},{"type":"Feature","properties":{"name":"Crown of Mitcham","address1":"Carshalton Road","address2":"Mitcham","borough_name":"Merton","borough_code":"E09000024","ward_2018_name":"Cricket Green","ward_2018_code":"E05000458","longitude":"-0.15903823783055032","latitude":"51.39010833055981","easting":"528186.9652698169","northing":"167281.92747998593","runtime":"02/28/2021"},"geometry":{"type":"Point","coordinates":[-0.159038,51.390108]}},{"type":"Feature","properties":{"name":"Ravensbury","address1":"260 Croydon Road","address2":"Mitcham","borough_name":"Merton","borough_code":"E09000024","ward_2018_name":"Cricket Green","ward_2018_code":"E05000458","longitude":"-0.1578583155762723","latitude":"51.39765260673579","easting":"528247.965254566","northing":"168122.92725141702","runtime":"02/28/2021"},"geometry":{"type":"Point","coordinates":[-0.157858,51.397653]}},{"type":"Feature","properties":{"name":"Tudor Rose","address1":"270 Coulsdon Road","address2":"Coulsdon","borough_name":"Croydon","borough_code":"E09000008","ward_2018_name":"Old Coulsdon","ward_2018_code":"E05011474","longitude":"-0.11908165672687908","latitude":"51.30482427550423","easting":"531209.9644486628","northing":"157868.93003667166","runtime":"02/28/2021"},"geometry":{"type":"Point","coordinates":[-0.119082,51.304824]}},{"type":"Feature","properties":{"name":"Coulsdon Manor Hotel","address1":"Coulsdon Court Road","address2":"Coulsdon","borough_name":"Croydon","borough_code":"E09000008","ward_2018_name":"Old Coulsdon","ward_2018_code":"E05011474","longitude":"-0.12507376797232073","latitude":"51.31728550449799","easting":"530756.9645738129","northing":"159243.9296666053","runtime":"02/28/2021"},"geometry":{"type":"Point","coordinates":[-0.125074,51.317286]}},{"type":"Feature","properties":{"name":"Pembroke","address1":"12-16 Chipstead Valley Road","address2":"Coulsdon","borough_name":"Croydon","borough_code":"E09000008","ward_2018_name":"Coulsdon Town","ward_2018_code":"E05011466","longitude":"-0.1391941976922951","latitude":"51.32084686437306","easting":"529762.9648439761","northing":"159614.9295653567","runtime":"02/28/2021"},"geometry":{"type":"Point","coordinates":[-0.139194,51.320847]}},{"type":"Feature","properties":{"name":"Smugglers Inn","address1":"320 Chipstead Valley Road","address2":"Coulsdon","borough_name":"Croydon","borough_code":"E09000008","ward_2018_name":"Coulsdon Town","ward_2018_code":"E05011466","longitude":"-0.15018325865178211","latitude":"51.319168253439024","easting":"529001.9650510787","northing":"159408.92962223035","runtime":"02/28/2021"},"geometry":{"type":"Point","coordinates":[-0.150183,51.319168]}},{"type":"Feature","properties":{"name":"Plough on the Pond","address1":"774 London Road","address2":"Thornton Heath","borough_name":"Croydon","borough_code":"E09000008","ward_2018_name":"West Thornton","ward_2018_code":"E05011488","longitude":"-0.11410289203598241","latitude":"51.39440337434484","easting":"531300.9644235795","northing":"167838.92733021092","runtime":"02/28/2021"},"geometry":{"type":"Point","coordinates":[-0.114103,51.394403]}},{"type":"Feature","properties":{"name":"Railway Telegraph","address1":"19 Brigstock Road","address2":"Thornton Heath","borough_name":"Croydon","borough_code":"E09000008","ward_2018_name":"Bensham Manor","ward_2018_code":"E05011464","longitude":"-0.10155696687897788","latitude":"51.39779797899061","easting":"532163.9641893362","northing":"168238.9272186978","runtime":"02/28/2021"},"geometry":{"type":"Point","coordinates":[-0.101557,51.397798]}},{"type":"Feature","properties":{"name":"Welcome Inn","address1":"300 Parchmore Road","address2":"Thornton Heath","borough_name":"Croydon","borough_code":"E09000008","ward_2018_name":"Thornton Heath","ward_2018_code":"E05011486","longitude":"-0.10448903018784793","latitude":"51.40684703255843","easting":"531933.9642511681","northing":"169239.92694745545","runtime":"02/28/2021"},"geometry":{"type":"Point","coordinates":[-0.104489,51.406847]}},{"type":"Feature","properties":{"name":"Prince George","address1":"2 High Street","address2":"Thornton Heath","borough_name":"Croydon","borough_code":"E09000008","ward_2018_name":"Thornton Heath","ward_2018_code":"E05011486","longitude":"-0.09363213090847781","latitude":"51.398235829453135","easting":"532713.9640386667","northing":"168301.92720253736","runtime":"02/28/2021"},"geometry":{"type":"Point","coordinates":[-0.093632,51.398236]}},{"type":"Feature","properties":{"name":"Elliotts","address1":"5 High Street","address2":"Purley","borough_name":"Croydon","borough_code":"E09000008","ward_2018_name":"Purley & Woodcote","ward_2018_code":"E05011476","longitude":"-0.11569840976422631","latitude":"51.33840381152498","easting":"531349.9644116461","northing":"161608.929022374","runtime":"02/28/2021"},"geometry":{"type":"Point","coordinates":[-0.115698,51.338404]}},{"type":"Feature","properties":{"name":"Jolly Farmers","address1":"7 Purley Road","address2":"Purley","borough_name":"Croydon","borough_code":"E09000008","ward_2018_name":"Purley & Woodcote","ward_2018_code":"E05011476","longitude":"-0.11624511907960865","latitude":"51.338025901912616","easting":"531312.9644216793","northing":"161565.9290340258","runtime":"02/28/2021"},"geometry":{"type":"Point","coordinates":[-0.116245,51.338026]}},{"type":"Feature","properties":{"name":"Foxley Hatch","address1":"8-9 Russell Hill Road","address2":"Purley","borough_name":"Croydon","borough_code":"E09000008","ward_2018_name":"Purley & Woodcote","ward_2018_code":"E05011476","longitude":"-0.11762985627659095","latitude":"51.33927119193182","easting":"531212.9644496387","northing":"161701.92899700927","runtime":"02/28/2021"},"geometry":{"type":"Point","coordinates":[-0.11763,51.339271]}},{"type":"Feature","properties":{"name":"Pear Tree","address1":"908 Brighton Road","address2":"Purley","borough_name":"Croydon","borough_code":"E09000008","ward_2018_name":"Purley & Woodcote","ward_2018_code":"E05011476","longitude":"-0.11565125623626796","latitude":"51.33955415129068","easting":"531349.9644120487","northing":"161736.92898763486","runtime":"02/28/2021"},"geometry":{"type":"Point","coordinates":[-0.115651,51.339554]}},{"type":"Feature","properties":{"name":"Kenley Hotel","address1":"62 Godstone Road","address2":"Kenley","borough_name":"Croydon","borough_code":"E09000008","ward_2018_name":"Kenley","ward_2018_code":"E05011469","longitude":"-0.10047507748269979","latitude":"51.325657856816036","easting":"532446.9641092052","northing":"160218.9293972945","runtime":"02/28/2021"},"geometry":{"type":"Point","coordinates":[-0.100475,51.325658]}},{"type":"Feature","properties":{"name":"Wattenden Arms","address1":"5 Old Lodge Lane","address2":"Kenley","borough_name":"Croydon","borough_code":"E09000008","ward_2018_name":"Kenley","ward_2018_code":"E05011469","longitude":"-0.10288787722366496","latitude":"51.30752187732649","easting":"532330.9641458979","northing":"158197.92995154663","runtime":"02/28/2021"},"geometry":{"type":"Point","coordinates":[-0.102888,51.307522]}},{"type":"Feature","properties":{"name":"Whistler's Bar","address1":"Croydon Park Hotel 7 Altyre Road","address2":"Croydon","borough_name":"Croydon","borough_code":"E09000008","ward_2018_name":"Addiscombe West","ward_2018_code":"E05011463","longitude":"-0.09125848848121525","latitude":"51.37306234125689","easting":"532951.9639752477","northing":"165506.9279626581","runtime":"02/28/2021"},"geometry":{"type":"Point","coordinates":[-0.091258,51.373062]}},{"type":"Feature","properties":{"name":"Alma","address1":"10 Alma Road","address2":"Sidcup","address3":"Sidcup","borough_name":"Bexley","borough_code":"E09000004","ward_2018_name":"Sidcup","ward_2018_code":"E05011230","longitude":"0.1033243023467555","latitude":"51.43214172320062","easting":"546305.9603461365","northing":"172446.92607532418","runtime":"02/28/2021"},"geometry":{"type":"Point","coordinates":[0.103324,51.432142]}},{"type":"Feature","properties":{"name":"White Cross","address1":"146 Northcray Road","address2":"Bexley","address3":"North Cray","borough_name":"Bexley","borough_code":"E09000004","ward_2018_name":"St. Mary's & St. James","ward_2018_code":"E05011229","longitude":"0.13880084246159452","latitude":"51.430258656623295","easting":"548777.9596731872","northing":"172308.9261131939","runtime":"02/28/2021"},"geometry":{"type":"Point","coordinates":[0.138801,51.430259]}},{"type":"Feature","properties":{"name":"Seven Stars","address1":"400 Footscray  High Street","address2":"Sidcup","address3":"Foots Cray","borough_name":"Bexley","borough_code":"E09000004","ward_2018_name":"Sidcup","ward_2018_code":"E05011230","longitude":"0.1187094470559505","latitude":"51.41858173999382","easting":"547418.9600400468","northing":"170969.9264762898","runtime":"02/28/2021"},"geometry":{"type":"Point","coordinates":[0.118709,51.418582]}},{"type":"Feature","properties":{"name":"Star at Sidcup Place","address1":"Sidcup Place, Chislehurst Road","address2":"Sidcup","address3":"Sidcup","borough_name":"Bexley","borough_code":"E09000004","ward_2018_name":"Sidcup","ward_2018_code":"E05011230","longitude":"0.10255221212439612","latitude":"51.42504206220737","easting":"546274.960353445","northing":"171655.92629165127","runtime":"02/28/2021"},"geometry":{"type":"Point","coordinates":[0.102552,51.425042]}},{"type":"Feature","properties":{"name":"Tailor's Chalk","address1":"47-49 High Street","address2":"Sidcup","address3":"Sidcup","borough_name":"Bexley","borough_code":"E09000004","ward_2018_name":"Sidcup","ward_2018_code":"E05011230","longitude":"0.10365427407794241","latitude":"51.42617339895003","easting":"546347.960333735","northing":"171783.92625681806","runtime":"02/28/2021"},"geometry":{"type":"Point","coordinates":[0.103654,51.426173]}},{"type":"Feature","properties":{"name":"Hopper's Hut","address1":"1 Invicta Parade. Sidcup High Street","address2":"Sidcup","address3":"Sidcup","borough_name":"Bexley","borough_code":"E09000004","ward_2018_name":"Sidcup","ward_2018_code":"E05011230","longitude":"0.10675590811759889","latitude":"51.424489929232834","easting":"546568.9602735117","northing":"171602.92630647856","runtime":"02/28/2021"},"geometry":{"type":"Point","coordinates":[0.106756,51.42449]}},{"type":"Feature","properties":{"name":"Hill Top Tap","address1":"7-8 Elm Parade, Main Road","address2":"Sidcup","address3":"Sidcup","borough_name":"Bexley","borough_code":"E09000004","ward_2018_name":"Sidcup","ward_2018_code":"E05011230","longitude":"0.10017760640975558","latitude":"51.426271727500946","easting":"546105.9603995009","northing":"171787.92625524057","runtime":"02/28/2021"},"geometry":{"type":"Point","coordinates":[0.100178,51.426272]}},{"type":"Feature","properties":{"name":"Horse & Groom","address1":"136 Main Road","address2":"Sidcup","address3":"Sidcup","borough_name":"Bexley","borough_code":"E09000004","ward_2018_name":"Longlands","ward_2018_code":"E05011227","longitude":"0.09387635370685896","latitude":"51.42720286471233","easting":"545664.9605195593","northing":"171878.92622986482","runtime":"02/28/2021"},"geometry":{"type":"Point","coordinates":[0.093876,51.427203]}},{"type":"Feature","properties":{"name":"Charcoal","address1":"299 Main Road","address2":"Sidcup","address3":"Sidcup","borough_name":"Bexley","borough_code":"E09000004","ward_2018_name":"Longlands","ward_2018_code":"E05011227","longitude":"0.08576751284738582","latitude":"51.430459064458134","easting":"545090.9606741996","northing":"172224.92613584","runtime":"02/28/2021"},"geometry":{"type":"Point","coordinates":[0.085768,51.430459]}},{"type":"Feature","properties":{"name":"Bear & Ragged Staff","address1":"2 London Road","address2":"Crayford","address3":"Crayford","borough_name":"Bexley","borough_code":"E09000004","ward_2018_name":"Crayford","ward_2018_code":"E05011222","longitude":"0.176533954730004","latitude":"51.451983688641945","easting":"551328.958980102","northing":"174801.92543628113","runtime":"02/28/2021"},"geometry":{"type":"Point","coordinates":[0.176534,51.451984]}},{"type":"Feature","properties":{"name":"One Bell","address1":"170 Old Road","address2":"Crayford","address3":"Crayford","borough_name":"Bexley","borough_code":"E09000004","ward_2018_name":"Crayford","ward_2018_code":"E05011222","longitude":"0.1746204600269476","latitude":"51.45381779534402","easting":"551189.9590173342","northing":"175001.92538194178","runtime":"02/28/2021"},"geometry":{"type":"Point","coordinates":[0.17462,51.453818]}},{"type":"Feature","properties":{"name":"Duke's Head","address1":"53 Crayford High Street","address2":"Crayford","address3":"Crayford","borough_name":"Bexley","borough_code":"E09000004","ward_2018_name":"Crayford","ward_2018_code":"E05011222","longitude":"0.1762153536561533","latitude":"51.45345546078817","easting":"551301.9589874065","northing":"174964.9253920663","runtime":"02/28/2021"},"geometry":{"type":"Point","coordinates":[0.176215,51.453455]}},{"type":"Feature","properties":{"name":"Crayford Arms","address1":"37 Crayford High Street","address2":"Crayford","address3":"Crayford","borough_name":"Bexley","borough_code":"E09000004","ward_2018_name":"Crayford","ward_2018_code":"E05011222","longitude":"0.17739867487654515","latitude":"51.4523093651099","easting":"551387.9589643988","northing":"174839.92542609375","runtime":"02/28/2021"},"geometry":{"type":"Point","coordinates":[0.177399,51.452309]}},{"type":"Feature","properties":{"name":"Penny Farthing","address1":"3 Waterside","address2":"Crayford","address3":"Dartford","borough_name":"Bexley","borough_code":"E09000004","ward_2018_name":"Crayford","ward_2018_code":"E05011222","longitude":"0.178477669515047","latitude":"51.4522983129489","easting":"551462.9589444103","northing":"174840.9254259665","runtime":"02/28/2021"},"geometry":{"type":"Point","coordinates":[0.178478,51.452298]}},{"type":"Feature","properties":{"name":"Hackney Carriage","address1":"165 Station Road","address2":"Sidcup","borough_name":"Bexley","borough_code":"E09000004","ward_2018_name":"Blackfen & Lamorbey","ward_2018_code":"E05011220","longitude":"0.10195606235549844","latitude":"51.43524188160511","easting":"546200.9603747133","northing":"172788.92598184157","runtime":"02/28/2021"},"geometry":{"type":"Point","coordinates":[0.101956,51.435242]}},{"type":"Feature","properties":{"name":"Iron Horse","address1":"122 Station Road","address2":"Sidcup","address3":"Sidcup","borough_name":"Bexley","borough_code":"E09000004","ward_2018_name":"Blackfen & Lamorbey","ward_2018_code":"E05011220","longitude":"0.1025696128052599","latitude":"51.43481720040214","easting":"546244.9603628216","northing":"172742.92599441193","runtime":"02/28/2021"},"geometry":{"type":"Point","coordinates":[0.10257,51.434817]}},{"type":"Feature","properties":{"name":"Halfway House","address1":"188c Halfway Street","address2":"Sidcup","address3":"Halfway","borough_name":"Bexley","borough_code":"E09000004","ward_2018_name":"Blackfen & Lamorbey","ward_2018_code":"E05011220","longitude":"0.08721745935728364","latitude":"51.44111689656534","easting":"545157.9606564547","northing":"173412.92581466527","runtime":"02/28/2021"},"geometry":{"type":"Point","coordinates":[0.087217,51.441117]}},{"type":"Feature","properties":{"name":"Black Boy","address1":"Southspring","address2":"Sidcup","address3":"Avery Hill","borough_name":"Greenwich","borough_code":"E09000011","ward_2018_name":"Eltham South","ward_2018_code":"E05000219","longitude":"0.08478982251965633","latitude":"51.44500008642721","easting":"544976.9607068077","northing":"173839.92569962068","runtime":"02/28/2021"},"geometry":{"type":"Point","coordinates":[0.08479,51.445]}},{"type":"Feature","properties":{"name":"Olde Black Horse","address1":"43 Halfway Street","address2":"Sidcup","address3":"Lamorbey","borough_name":"Bexley","borough_code":"E09000004","ward_2018_name":"Blackfen & Lamorbey","ward_2018_code":"E05011220","longitude":"0.09800868769086105","latitude":"51.43732703097848","easting":"545919.9604502426","northing":"173012.92592063738","runtime":"02/28/2021"},"geometry":{"type":"Point","coordinates":[0.098009,51.437327]}},{"type":"Feature","properties":{"name":"George Staples","address1":"273 Blackfen Road","address2":"Blackfen","borough_name":"Bexley","borough_code":"E09000004","ward_2018_name":"Blackfen & Lamorbey","ward_2018_code":"E05011220","longitude":"0.10058822053173049","latitude":"51.45120194053276","easting":"546054.9604115711","northing":"174560.92550007277","runtime":"02/28/2021"},"geometry":{"type":"Point","coordinates":[0.100588,51.451202]}},{"type":"Feature","properties":{"name":"Jolly Fenman","address1":"64-68 Blackfen Road","address2":"Sidcup","address3":"Blackfen","borough_name":"Bexley","borough_code":"E09000004","ward_2018_name":"Blackfen & Lamorbey","ward_2018_code":"E05011220","longitude":"0.09218254332389636","latitude":"51.4515141430921","easting":"545469.9605716689","northing":"174578.9254968164","runtime":"02/28/2021"},"geometry":{"type":"Point","coordinates":[0.092183,51.451514]}},{"type":"Feature","properties":{"name":"Hangar","address1":"37 The Oval","address2":"Sidcup","address3":"Blackfen","borough_name":"Bexley","borough_code":"E09000004","ward_2018_name":"Blendon & Penhill","ward_2018_code":"E05011221","longitude":"0.10243860765495696","latitude":"51.445116506391855","easting":"546202.9603715119","northing":"173887.9256828344","runtime":"02/28/2021"},"geometry":{"type":"Point","coordinates":[0.102439,51.445117]}},{"type":"Feature","properties":{"name":"Broken Drum","address1":"308 Westwood Lane","address2":"Blackfen","borough_name":"Bexley","borough_code":"E09000004","ward_2018_name":"Blackfen & Lamorbey","ward_2018_code":"E05011220","longitude":"0.10321764446287447","latitude":"51.45173033758464","easting":"546235.9603627538","northing":"174624.9254829978","runtime":"02/28/2021"},"geometry":{"type":"Point","coordinates":[0.103218,51.45173]}},{"type":"Feature","properties":{"name":"Wings Sports Bar","address1":"Welling United FC.  Park View Road","address2":"Welling","address3":"Welling","borough_name":"Bexley","borough_code":"E09000004","ward_2018_name":"Falconwood & Welling","ward_2018_code":"E05011226","longitude":"0.11601320766372782","latitude":"51.46043906251152","easting":"547096.9601322879","northing":"175618.92521529127","runtime":"02/28/2021"},"geometry":{"type":"Point","coordinates":[0.116013,51.460439]}},{"type":"Feature","properties":{"name":"Guy, Earl Of Warwick","address1":"Park View Road","address2":"Welling","address3":"Welling","borough_name":"Bexley","borough_code":"E09000004","ward_2018_name":"Falconwood & Welling","ward_2018_code":"E05011226","longitude":"0.11547926585231824","latitude":"51.4610332428127","easting":"547057.960142977","northing":"175683.92519776488","runtime":"02/28/2021"},"geometry":{"type":"Point","coordinates":[0.115479,51.461033]}},{"type":"Feature","properties":{"name":"Wrong 'Un","address1":"234-236 Broadway","address2":"Bexleyheath","borough_name":"Bexley","borough_code":"E09000004","ward_2018_name":"Bexleyheath","ward_2018_code":"E05011219","longitude":"0.1374124547181311","latitude":"51.45782053935422","easting":"548591.9597208039","northing":"175370.92528115294","runtime":"02/28/2021"},"geometry":{"type":"Point","coordinates":[0.137412,51.457821]}},{"type":"Feature","properties":{"name":"Rose & Crown","address1":"15 Welling High Street","address2":"Welling","address3":"Welling","borough_name":"Bexley","borough_code":"E09000004","ward_2018_name":"Falconwood & Welling","ward_2018_code":"E05011226","longitude":"0.11261683460371465","latitude":"51.46202013047176","easting":"546855.960197592","northing":"175787.92516959074","runtime":"02/28/2021"},"geometry":{"type":"Point","coordinates":[0.112617,51.46202]}},{"type":"Feature","properties":{"name":"Door Hinge","address1":"11, Welling High Street","address2":"Welling","borough_name":"Bexley","borough_code":"E09000004","ward_2018_name":"Falconwood & Welling","ward_2018_code":"E05011226","longitude":"0.11261683460371465","latitude":"51.46202013047176","easting":"546855.960197592","northing":"175787.92516959074","runtime":"02/28/2021"},"geometry":{"type":"Point","coordinates":[0.112617,51.46202]}},{"type":"Feature","properties":{"name":"Nags Head","address1":"37 Welling High Street","address2":"Welling","address3":"Welling","borough_name":"Bexley","borough_code":"E09000004","ward_2018_name":"Falconwood & Welling","ward_2018_code":"E05011226","longitude":"0.11261683460371465","latitude":"51.46202013047176","easting":"546855.960197592","northing":"175787.92516959074","runtime":"02/28/2021"},"geometry":{"type":"Point","coordinates":[0.112617,51.46202]}},